{"000751000100":{"stop_id":"000751000100","stop_name":"Aarhus Rutebilstation","stop_lat":"56.151871000000","stop_lon":"10.209167000000"},"000751400300":{"stop_id":"000751400300","stop_name":"Solbjerg Hovedgade/Østergårdsvej v. Solbjerg Friti","stop_lat":"56.037753000000","stop_lon":"10.081620000000"},"000713003100":{"stop_id":"000713003100","stop_name":"Hinnerup C.","stop_lat":"56.263405000000","stop_lon":"10.061532000000"},"000751101000":{"stop_id":"000751101000","stop_name":"Tranbjerg Station","stop_lat":"56.095747000000","stop_lon":"10.136437000000"},"000751100500":{"stop_id":"000751100500","stop_name":"Skødstrup (Aarhus)","stop_lat":"56.262188000000","stop_lon":"10.306995000000"},"000751000700":{"stop_id":"000751000700","stop_name":"Viby Torv","stop_lat":"56.128635000000","stop_lon":"10.162392000000"},"000008600059":{"stop_id":"000008600059","stop_name":"Hørning St.","stop_lat":"56.082050000000","stop_lon":"10.037787000000"},"000008600054":{"stop_id":"000008600054","stop_name":"Viby Jylland St.","stop_lat":"56.122224000000","stop_lon":"10.160864000000"},"000008600053":{"stop_id":"000008600053","stop_name":"Aarhus H","stop_lat":"56.150441000000","stop_lon":"10.204760000000"},"000751300900":{"stop_id":"000751300900","stop_name":"Skanderborgvej v. Harald Jensens Plads (Aarhus )","stop_lat":"56.143933000000","stop_lon":"10.189250000000"},"000709000700":{"stop_id":"000709000700","stop_name":"Hadsten st. ","stop_lat":"56.327342000000","stop_lon":"10.047910000000"},"000751002400":{"stop_id":"000751002400","stop_name":"Damgårds Allé/Beder Landevej  (Aarhus)","stop_lat":"56.059172000000","stop_lon":"10.204160000000"},"000008600048":{"stop_id":"000008600048","stop_name":"Hinnerup St.","stop_lat":"56.263085000000","stop_lon":"10.060070000000"},"000008600047":{"stop_id":"000008600047","stop_name":"Hadsten St.","stop_lat":"56.327500000000","stop_lon":"10.047235000000"},"000751101800":{"stop_id":"000751101800","stop_name":"Bredgade/Holmskovvej. Malling (Aarhus)","stop_lat":"56.040243000000","stop_lon":"10.193587000000"},"000745000100":{"stop_id":"000745000100","stop_name":"Gadebakken/Agertoften. Virring (Skanderborg)","stop_lat":"56.032617000000","stop_lon":"10.032994000000"},"000713003000":{"stop_id":"000713003000","stop_name":"Hinnerup st. ","stop_lat":"56.263343000000","stop_lon":"10.060384000000"},"000745100300":{"stop_id":"000745100300","stop_name":"Gl. Horsensvej/Bjergvej. Svinsager (Skanderborg)","stop_lat":"56.015756000000","stop_lon":"10.036699000000"},"000751000600":{"stop_id":"000751000600","stop_name":"Løgten (Aarhus)","stop_lat":"56.275955000000","stop_lon":"10.315346000000"},"000751300600":{"stop_id":"000751300600","stop_name":"Banegårdspladsen (Flybus mod Tirstrup)","stop_lat":"56.150609000000","stop_lon":"10.205055000000"},"000745000102":{"stop_id":"000745000102","stop_name":"Gadebakken/Krogen. Virring (Skanderborg)","stop_lat":"56.030264000000","stop_lon":"10.033846000000"},"000745100301":{"stop_id":"000745100301","stop_name":"Gammel Horsensvej/Møltoftvej v/Gjesing (Skanderbor","stop_lat":"56.002401000000","stop_lon":"10.030488000000"},"000745000101":{"stop_id":"000745000101","stop_name":"Virringvej/Lykkegårdsvej. Virring","stop_lat":"56.032778000000","stop_lon":"10.037299000000"},"000751300300":{"stop_id":"000751300300","stop_name":"Trige (Aarhus)","stop_lat":"56.252970000000","stop_lon":"10.155133000000"},"000751300500":{"stop_id":"000751300500","stop_name":"Aarhus Universitetshospital. Tage-Hansens Gade","stop_lat":"56.159902000000","stop_lon":"10.186265000000"},"000751300700":{"stop_id":"000751300700","stop_name":"Park Allé/Aarhus Banegårdsplads","stop_lat":"56.151713000000","stop_lon":"10.203318000000"},"000751301000":{"stop_id":"000751301000","stop_name":"Aarhus Universitet. Randersvej/Nordre Ringgade","stop_lat":"56.171648000000","stop_lon":"10.204651000000"},"000751301200":{"stop_id":"000751301200","stop_name":"Nørreport (Aarhus)","stop_lat":"56.161986000000","stop_lon":"10.211272000000"},"000751301400":{"stop_id":"000751301400","stop_name":"Mundelstrup By (Aarhus)","stop_lat":"56.197365000000","stop_lon":"10.066573000000"},"000751301500":{"stop_id":"000751301500","stop_name":"Mundelstrupgård (Aarhus)","stop_lat":"56.192546000000","stop_lon":"10.062717000000"},"000751301600":{"stop_id":"000751301600","stop_name":"Viborgvej v/rundkørsel (Aarhus)","stop_lat":"56.186865000000","stop_lon":"10.087825000000"},"000751301700":{"stop_id":"000751301700","stop_name":"Oddervej/Jelshøjvænget v. Skåde Skole (Aarhus)","stop_lat":"56.103641000000","stop_lon":"10.206963000000"},"000751301800":{"stop_id":"000751301800","stop_name":"Gl. Viborgvej v/motorvejen (Aarhus)","stop_lat":"56.193914000000","stop_lon":"10.074938000000"},"000751400100":{"stop_id":"000751400100","stop_name":"Dr. Holsts Vej. Digterparken (Aarhus)","stop_lat":"56.158571000000","stop_lon":"10.145456000000"},"000751400200":{"stop_id":"000751400200","stop_name":"Jyllands Allé/Vilhelm Bechs Vej v. Cykelbanen (Aar","stop_lat":"56.132607000000","stop_lon":"10.189737000000"},"000751400400":{"stop_id":"000751400400","stop_name":"Rosenvang Allé/Kridthøjtorvet (Aarhus)","stop_lat":"56.117967000000","stop_lon":"10.195509000000"},"000751400500":{"stop_id":"000751400500","stop_name":"Tandervej/Agervej. Mårslet (Aarhus)","stop_lat":"56.063927000000","stop_lon":"10.157955000000"},"000751400600":{"stop_id":"000751400600","stop_name":"Christian X's Vej/Ringvej Syd (Aarhus)","stop_lat":"56.112416000000","stop_lon":"10.156693000000"},"000751400700":{"stop_id":"000751400700","stop_name":"Holmevej/Holme Møllevej (Aarhus)","stop_lat":"56.117146000000","stop_lon":"10.173417000000"},"000751400800":{"stop_id":"000751400800","stop_name":"Rosenvangs Allé/Holmevej v. Saralystparken (Aarhus","stop_lat":"56.121450000000","stop_lon":"10.188492000000"},"000751400900":{"stop_id":"000751400900","stop_name":"Mindeparken. Carl Nielsens Vej (Aarhus)","stop_lat":"56.130022000000","stop_lon":"10.202384000000"},"000751401000":{"stop_id":"000751401000","stop_name":"Dalgas Avenue v. Tangkrogen (Aarhus)","stop_lat":"56.139052000000","stop_lon":"10.206994000000"},"000751401300":{"stop_id":"000751401300","stop_name":"Viby Ringvej/Søren Frichs Vej (Aarhus)","stop_lat":"56.146470000000","stop_lon":"10.151969000000"},"000751401400":{"stop_id":"000751401400","stop_name":"Åby Ringvej/Edwin Rahrs Vej (Aarhus)","stop_lat":"56.162506000000","stop_lon":"10.144510000000"},"000751401500":{"stop_id":"000751401500","stop_name":"Åby Ringvej/Bautavej (Aarhus)","stop_lat":"56.166142000000","stop_lon":"10.148757000000"},"000751401600":{"stop_id":"000751401600","stop_name":"Rymarken (Aarhus)","stop_lat":"56.166606000000","stop_lon":"10.157693000000"},"000751401700":{"stop_id":"000751401700","stop_name":"Hasle Ringvej/Herredsvej (Aarhus)","stop_lat":"56.173853000000","stop_lon":"10.165771000000"},"000751401800":{"stop_id":"000751401800","stop_name":"Paludan-Müllers Vej/Hasle Ringvej (Aarhus)","stop_lat":"56.176629000000","stop_lon":"10.179178000000"},"000751401900":{"stop_id":"000751401900","stop_name":"Hasle Ringvej/Brendstrupvej (Aarhus)","stop_lat":"56.177881000000","stop_lon":"10.182615000000"},"000751402000":{"stop_id":"000751402000","stop_name":"Åkrogs Strandvej/Brovej (Aarhus)","stop_lat":"56.202636000000","stop_lon":"10.268699000000"},"000751402100":{"stop_id":"000751402100","stop_name":"Grenåvej/Lystrupvej (Aarhus)","stop_lat":"56.199439000000","stop_lon":"10.237484000000"},"000751402400":{"stop_id":"000751402400","stop_name":"Hovedvejen/Koltvej. Hasselager (Aarhus)","stop_lat":"56.105800000000","stop_lon":"10.100845000000"},"000751402500":{"stop_id":"000751402500","stop_name":"Thorvaldsensgade v. Mølleparken (Aarhus)","stop_lat":"56.155573000000","stop_lon":"10.198142000000"},"000751402700":{"stop_id":"000751402700","stop_name":"Edwin Rahrs Vej/Grimhøjvej (Aarhus)","stop_lat":"56.162583000000","stop_lon":"10.125334000000"},"000751402800":{"stop_id":"000751402800","stop_name":"Langelandsgade/Kaserneboulevarden (Aarhus)","stop_lat":"56.164604000000","stop_lon":"10.197199000000"},"000751402900":{"stop_id":"000751402900","stop_name":"Randersvej v. Stjernepladsen (Aarhus)","stop_lat":"56.174261000000","stop_lon":"10.202928000000"},"000751403000":{"stop_id":"000751403000","stop_name":"Louisevej v. City Vest (Aarhus)","stop_lat":"56.152519000000","stop_lon":"10.135246000000"},"000751403100":{"stop_id":"000751403100","stop_name":"Bushøjvej v. Holme Kirke (Aarhus)","stop_lat":"56.112573000000","stop_lon":"10.175224000000"},"000751403200":{"stop_id":"000751403200","stop_name":"Vestre Ringgade/Søren Frichs Vej (Aarhus)","stop_lat":"56.153250000000","stop_lon":"10.182808000000"},"000751101200":{"stop_id":"000751101200","stop_name":"Borum (Aarhus)","stop_lat":"56.187047000000","stop_lon":"10.013566000000"},"000751101300":{"stop_id":"000751101300","stop_name":"Ajstrup Strandvej v/Ajstrup skole (Aarhus)","stop_lat":"56.039375000000","stop_lon":"10.238777000000"},"000751101302":{"stop_id":"000751101302","stop_name":"Ajstrup Strandvej.  v nr. 26","stop_lat":"56.039356000000","stop_lon":"10.249611000000"},"000751101303":{"stop_id":"000751101303","stop_name":"Ajstrup Strandvej/Ørnevænget","stop_lat":"56.041755000000","stop_lon":"10.262868000000"},"000751101500":{"stop_id":"000751101500","stop_name":"Ajstrup Strand. Havvænget (Aarhus)","stop_lat":"56.039175000000","stop_lon":"10.269959000000"},"000751101502":{"stop_id":"000751101502","stop_name":"Ajstrup Strandvej/Ahornvænget. Ajstrup Strand","stop_lat":"56.035976000000","stop_lon":"10.269067000000"},"000751101503":{"stop_id":"000751101503","stop_name":"Ajstrup Strandvej/Lindevænget. Ajstrup Strand","stop_lat":"56.033581000000","stop_lon":"10.268652000000"},"000751101504":{"stop_id":"000751101504","stop_name":"Ajstrup Strandvej/Strandlodsvej. Ajstrup Strand","stop_lat":"56.030084000000","stop_lon":"10.265312000000"},"000751101505":{"stop_id":"000751101505","stop_name":"Norsmindevej/Strandbovej. Norsminde","stop_lat":"56.025726000000","stop_lon":"10.260949000000"},"000751101700":{"stop_id":"000751101700","stop_name":"Grenåvej/Brobjergparken (Aarhus)","stop_lat":"56.205814000000","stop_lon":"10.262806000000"},"000751101808":{"stop_id":"000751101808","stop_name":"Bredgade efter Fløjstrupvej. Malling","stop_lat":"56.041778000000","stop_lon":"10.193746000000"},"000751101900":{"stop_id":"000751101900","stop_name":"Hasle Torv","stop_lat":"56.167325000000","stop_lon":"10.163464000000"},"000751102100":{"stop_id":"000751102100","stop_name":"Hadstenvej Mødalvej (Aarhus)","stop_lat":"56.223131000000","stop_lon":"10.028856000000"},"000751102400":{"stop_id":"000751102400","stop_name":"Anelystvej/Trueholmvej (Aarhus)","stop_lat":"56.175199000000","stop_lon":"10.095243000000"},"000751102600":{"stop_id":"000751102600","stop_name":"Hørslev (Aarhus)","stop_lat":"56.164917000000","stop_lon":"9.992403000000"},"000751102700":{"stop_id":"000751102700","stop_name":"Hørslevbol (Aarhus)","stop_lat":"56.161669000000","stop_lon":"9.978230000000"},"000751102800":{"stop_id":"000751102800","stop_name":"Grenåvej/Tretommervej (Aarhus)","stop_lat":"56.192321000000","stop_lon":"10.218658000000"},"000751102900":{"stop_id":"000751102900","stop_name":"Labing v. Landevejen (Aarhus)","stop_lat":"56.157990000000","stop_lon":"10.007842000000"},"000751103200":{"stop_id":"000751103200","stop_name":"Hovedvejen/Alstrup Allé. Hasselager (Aarhus)","stop_lat":"56.105062000000","stop_lon":"10.094987000000"},"000751200100":{"stop_id":"000751200100","stop_name":"Egå Havvej. Egå (Aarhus)","stop_lat":"56.212643000000","stop_lon":"10.278526000000"},"000751200101":{"stop_id":"000751200101","stop_name":"Grenåvej Tålforvej","stop_lat":"56.219443000000","stop_lon":"10.284832000000"},"000751200102":{"stop_id":"000751200102","stop_name":"Grenåvej Toftegårdsvej","stop_lat":"56.224099000000","stop_lon":"10.288988000000"},"000751200200":{"stop_id":"000751200200","stop_name":"Spørring Hotel","stop_lat":"56.297556000000","stop_lon":"10.148285000000"},"000751200201":{"stop_id":"000751200201","stop_name":"Gl. Landev Højgårdsparke","stop_lat":"56.294536000000","stop_lon":"10.149390000000"},"000751200202":{"stop_id":"000751200202","stop_name":"Gl. Landevej Ågade","stop_lat":"56.299367000000","stop_lon":"10.144833000000"},"000751200300":{"stop_id":"000751200300","stop_name":"Skejby. Randersvej/Skejbyvej (Aarhus)","stop_lat":"56.200084000000","stop_lon":"10.181638000000"},"000751200400":{"stop_id":"000751200400","stop_name":"Marienlund. Dronning Margrethes Vej  (Aarhus)","stop_lat":"56.177009000000","stop_lon":"10.218721000000"},"000751200500":{"stop_id":"000751200500","stop_name":"Silkeborgvej/Åby Ringvej (Aarhus)","stop_lat":"56.153536000000","stop_lon":"10.143777000000"},"000751200600":{"stop_id":"000751200600","stop_name":"Gudrunsvej v. City Vest (Aarhus)","stop_lat":"56.155400000000","stop_lon":"10.134623000000"},"000751200700":{"stop_id":"000751200700","stop_name":"Segalt (Aarhus)","stop_lat":"56.279290000000","stop_lon":"10.311874000000"},"000751200701":{"stop_id":"000751200701","stop_name":"Segaltvej Bøgehøj","stop_lat":"56.284572000000","stop_lon":"10.312895000000"},"000751201000":{"stop_id":"000751201000","stop_name":"Sabro Korsvej (Aarhus)","stop_lat":"56.210946000000","stop_lon":"10.021355000000"},"000751201001":{"stop_id":"000751201001","stop_name":"Viborgvej Damvej","stop_lat":"56.209382000000","stop_lon":"10.028988000000"},"000751201002":{"stop_id":"000751201002","stop_name":"Viborgvej Urebjergvej","stop_lat":"56.214394000000","stop_lon":"10.001904000000"},"000751201600":{"stop_id":"000751201600","stop_name":"Silkeborgvej v. Årslev Kro (Aarhus)","stop_lat":"56.153437000000","stop_lon":"10.039035000000"},"000751201700":{"stop_id":"000751201700","stop_name":"Langkær. Tilst (Aarhus)","stop_lat":"56.183184000000","stop_lon":"10.109664000000"},"000751201800":{"stop_id":"000751201800","stop_name":"Viborgvej/Åby Ringvej (Aarhus)","stop_lat":"56.171074000000","stop_lon":"10.156474000000"},"000751201900":{"stop_id":"000751201900","stop_name":"Randersvej/Vejlby Ringvej v. Højvang (Aarhus)","stop_lat":"56.182510000000","stop_lon":"10.197354000000"},"000751202200":{"stop_id":"000751202200","stop_name":"Spørring v/ldv. (Aarhus)","stop_lat":"56.298915000000","stop_lon":"10.143187000000"},"000751202201":{"stop_id":"000751202201","stop_name":"Spørring syd km. 16.2","stop_lat":"56.294349000000","stop_lon":"10.146218000000"},"000751202400":{"stop_id":"000751202400","stop_name":"Randersvej/Skejbygårdsvej (Aarhus)","stop_lat":"56.193040000000","stop_lon":"10.187159000000"},"000751300200":{"stop_id":"000751300200","stop_name":"Skæring (Aarhus)","stop_lat":"56.230549000000","stop_lon":"10.294318000000"},"000751300201":{"stop_id":"000751300201","stop_name":"Grenåvej v/planteskolen","stop_lat":"56.238566000000","stop_lon":"10.298397000000"},"000751427800":{"stop_id":"000751427800","stop_name":"Brabrand Skovvej v. Sødalskolen (Aarhus)","stop_lat":"56.149404000000","stop_lon":"10.134897000000"},"000751427900":{"stop_id":"000751427900","stop_name":"Louisevej/Annettevej (Aarhus)","stop_lat":"56.151257000000","stop_lon":"10.134678000000"},"000751428000":{"stop_id":"000751428000","stop_name":"Aarhus Universitet. Statsbiblioteket. Langelandsg.","stop_lat":"56.170100000000","stop_lon":"10.198369000000"},"000751428100":{"stop_id":"000751428100","stop_name":"Brendstrupvej/Kløvermarksvej (Aarhus)","stop_lat":"56.175022000000","stop_lon":"10.198619000000"},"000751428200":{"stop_id":"000751428200","stop_name":"Brendstrupvej/Islandsgade (Aarhus)","stop_lat":"56.175651000000","stop_lon":"10.194934000000"},"000751428300":{"stop_id":"000751428300","stop_name":"Brendstrupvej/Laurvigsgade (Aarhus)","stop_lat":"56.176394000000","stop_lon":"10.190559000000"},"000751428400":{"stop_id":"000751428400","stop_name":"Brendstrupvej/Møllevangs Allé (Aarhus)","stop_lat":"56.177136000000","stop_lon":"10.186281000000"},"000751428500":{"stop_id":"000751428500","stop_name":"Holme Syd. Holme Parkvej (Aarhus)","stop_lat":"56.102163000000","stop_lon":"10.172881000000"},"000751428600":{"stop_id":"000751428600","stop_name":"Holme Parkvej 164 (Aarhus)","stop_lat":"56.107503000000","stop_lon":"10.177352000000"},"000751428700":{"stop_id":"000751428700","stop_name":"Nygårdsvej (Aarhus)","stop_lat":"56.110516000000","stop_lon":"10.177026000000"},"000751428800":{"stop_id":"000751428800","stop_name":"Carl Blochs Gade/Skovgaardsgade (Aarhus)","stop_lat":"56.154798000000","stop_lon":"10.193755000000"},"000751428900":{"stop_id":"000751428900","stop_name":"Søren Frichs Vej/Frejasvej v. Frichs Parken (Aarhu","stop_lat":"56.152482000000","stop_lon":"10.177617000000"},"000751429000":{"stop_id":"000751429000","stop_name":"Huginsvej/Lokesvej (Aarhus)","stop_lat":"56.150648000000","stop_lon":"10.169142000000"},"000751429100":{"stop_id":"000751429100","stop_name":"Chr. Winthers Vej/Søren Frichs Vej (Aarhus)","stop_lat":"56.148565000000","stop_lon":"10.160450000000"},"000751429300":{"stop_id":"000751429300","stop_name":"Søren Frichs Vej/P. Hiort-Lorenzens Vej (Aarhus)","stop_lat":"56.152288000000","stop_lon":"10.189443000000"},"000751429400":{"stop_id":"000751429400","stop_name":"Holme Parkvej 83 (Aarhus)","stop_lat":"56.105148000000","stop_lon":"10.175576000000"},"000751429700":{"stop_id":"000751429700","stop_name":"Strandvejen/Oddervej (Aarhus)","stop_lat":"56.128604000000","stop_lon":"10.213215000000"},"000751429800":{"stop_id":"000751429800","stop_name":"Ørneredevej v. Varna (Aarhus)","stop_lat":"56.124934000000","stop_lon":"10.215448000000"},"000751429900":{"stop_id":"000751429900","stop_name":"Ørneredevej v. Ballehage (Aarhus)","stop_lat":"56.121696000000","stop_lon":"10.222183000000"},"000751430000":{"stop_id":"000751430000","stop_name":"Ørneredevej/Hørhaven (Aarhus)","stop_lat":"56.112193000000","stop_lon":"10.226320000000"},"000751430100":{"stop_id":"000751430100","stop_name":"Ørneredevej/Blommehaven (Aarhus)","stop_lat":"56.110270000000","stop_lon":"10.231727000000"},"000751430200":{"stop_id":"000751430200","stop_name":"Ørneredevej v. Ørnereden (Aarhus)","stop_lat":"56.100639000000","stop_lon":"10.236146000000"},"000751430300":{"stop_id":"000751430300","stop_name":"Moesgård Strand (Aarhus)","stop_lat":"56.088625000000","stop_lon":"10.247751000000"},"000751430400":{"stop_id":"000751430400","stop_name":"Ankersgade v. lokalcenter (Aarhus)","stop_lat":"56.147997000000","stop_lon":"10.190840000000"},"000751430500":{"stop_id":"000751430500","stop_name":"Aarhus Universitetshospital. P.P. Ørumsgade","stop_lat":"56.142157000000","stop_lon":"10.186153000000"},"000751430700":{"stop_id":"000751430700","stop_name":"Frederiks Allé/Holbergsgade (Aarhus)","stop_lat":"56.146872000000","stop_lon":"10.194781000000"},"000751430800":{"stop_id":"000751430800","stop_name":"Frederiks Allé/Søgade (Aarhus)","stop_lat":"56.150049000000","stop_lon":"10.198856000000"},"000751431000":{"stop_id":"000751431000","stop_name":"Randersvej/Stockholmsgade (Aarhus)","stop_lat":"56.178495000000","stop_lon":"10.200032000000"},"000751431100":{"stop_id":"000751431100","stop_name":"Skejby Busvej/Nyringen (Aarhus)","stop_lat":"56.189683000000","stop_lon":"10.199850000000"},"000751431200":{"stop_id":"000751431200","stop_name":"Skejby Busvej v. Skejby Centret (Aarhus)","stop_lat":"56.194168000000","stop_lon":"10.196025000000"},"000751431300":{"stop_id":"000751431300","stop_name":"Skejby Busvej/Skejbygårdsvej v. Skejbyhøj (Aarhus)","stop_lat":"56.195766000000","stop_lon":"10.195237000000"},"000751431400":{"stop_id":"000751431400","stop_name":"Skejby Busvej v. Kordegarden (Aarhus)","stop_lat":"56.198138000000","stop_lon":"10.194376000000"},"000751431900":{"stop_id":"000751431900","stop_name":"Langenæs. Augustenborggade (Aarhus)","stop_lat":"56.144181000000","stop_lon":"10.180244000000"},"000751432000":{"stop_id":"000751432000","stop_name":"Augustenborggade/Nordborggade (Aarhus)","stop_lat":"56.146331000000","stop_lon":"10.183722000000"},"000751432100":{"stop_id":"000751432100","stop_name":"Langenæs Allé (Århus)","stop_lat":"56.142899000000","stop_lon":"10.185596000000"},"000751432200":{"stop_id":"000751432200","stop_name":"Sønderborggade/Tøndergade (Århus)","stop_lat":"56.140630000000","stop_lon":"10.182276000000"},"000751432300":{"stop_id":"000751432300","stop_name":"Skejby Busvej/Næringen v. Skelager Kirken (Aarhus)","stop_lat":"56.191497000000","stop_lon":"10.198166000000"},"000751432900":{"stop_id":"000751432900","stop_name":"Graham Bells Vej/Johann Gutenbergs Vej v. Ikea/Ilv","stop_lat":"56.204215000000","stop_lon":"10.181910000000"},"000751433000":{"stop_id":"000751433000","stop_name":"Nordborggade (Århus)","stop_lat":"56.145199000000","stop_lon":"10.185619000000"},"000751433100":{"stop_id":"000751433100","stop_name":"Skejby Busvej/Skejbytoften (Aarhus)","stop_lat":"56.199880000000","stop_lon":"10.193479000000"},"000751433200":{"stop_id":"000751433200","stop_name":"Graham Bells Vej/Samuel Morses Vej v. Lyngåskolen","stop_lat":"56.202096000000","stop_lon":"10.183570000000"},"000751433600":{"stop_id":"000751433600","stop_name":"Tilst Vestervej/Havkærvej (Aarhus)","stop_lat":"56.194419000000","stop_lon":"10.108377000000"},"000751433700":{"stop_id":"000751433700","stop_name":"Tilst Vestervej/Søhøjen (Aarhus)","stop_lat":"56.193424000000","stop_lon":"10.104030000000"},"000751433800":{"stop_id":"000751433800","stop_name":"Tilst Vestervej/Græsvangen (Aarhus)","stop_lat":"56.191752000000","stop_lon":"10.097068000000"},"000751433900":{"stop_id":"000751433900","stop_name":"Tilst Vestervej/Frømosevej (Aarhus)","stop_lat":"56.188948000000","stop_lon":"10.090994000000"},"000751434000":{"stop_id":"000751434000","stop_name":"Tilst Skolevej. Langkærvej (Aarhus)","stop_lat":"56.185665000000","stop_lon":"10.104564000000"},"000751434100":{"stop_id":"000751434100","stop_name":"Tilst Skolevej v. Idrætscenter TST (Aarhus)","stop_lat":"56.188637000000","stop_lon":"10.108855000000"},"000751434200":{"stop_id":"000751434200","stop_name":"Havkærvej/Tåstumvænget (Aarhus)","stop_lat":"56.190139000000","stop_lon":"10.114716000000"},"000751434300":{"stop_id":"000751434300","stop_name":"Havkærvej/Kileparken (Aarhus)","stop_lat":"56.188429000000","stop_lon":"10.118984000000"},"000751434500":{"stop_id":"000751434500","stop_name":"Havkærvej v. Gasa (Aarhus)","stop_lat":"56.184624000000","stop_lon":"10.123337000000"},"000751434600":{"stop_id":"000751434600","stop_name":"Viborgvej/Havkærvej (Aarhus)","stop_lat":"56.181161000000","stop_lon":"10.122752000000"},"000751434700":{"stop_id":"000751434700","stop_name":"Viborgvej/Eldalen (Aarhus)","stop_lat":"56.179479000000","stop_lon":"10.129856000000"},"000751434800":{"stop_id":"000751434800","stop_name":"Viborgvej/Bredskiftevej (Aarhus)","stop_lat":"56.177782000000","stop_lon":"10.136669000000"},"000751434900":{"stop_id":"000751434900","stop_name":"Viborgvej/Sommervej (Aarhus)","stop_lat":"56.173867000000","stop_lon":"10.150905000000"},"000751435000":{"stop_id":"000751435000","stop_name":"Søndervangs Allé/Runegårdsvej (Aarhus)","stop_lat":"56.117887000000","stop_lon":"10.157677000000"},"000751419200":{"stop_id":"000751419200","stop_name":"Viby Ringvej/Tomsagervej (Aarhus)","stop_lat":"56.143250000000","stop_lon":"10.153209000000"},"000751419300":{"stop_id":"000751419300","stop_name":"Viby Ringvej/Åbyhøjgård (Aarhus)","stop_lat":"56.148992000000","stop_lon":"10.148326000000"},"000751419400":{"stop_id":"000751419400","stop_name":"Hasle Ringvej/Nykersvej (Aarhus)","stop_lat":"56.175250000000","stop_lon":"10.172966000000"},"000751419500":{"stop_id":"000751419500","stop_name":"Halmstadgade v. Skøjtehallen (Aarhus)","stop_lat":"56.181874000000","stop_lon":"10.188779000000"},"000751419600":{"stop_id":"000751419600","stop_name":"Halmstadgade v. Aarhus Tech","stop_lat":"56.184049000000","stop_lon":"10.190587000000"},"000751419700":{"stop_id":"000751419700","stop_name":"Skolevangs Allé/Alsvej (Aarhus)","stop_lat":"56.193255000000","stop_lon":"10.224086000000"},"000751419900":{"stop_id":"000751419900","stop_name":"Emiliedalsvej/Stenvej (Aarhus)","stop_lat":"56.107498000000","stop_lon":"10.207647000000"},"000751420000":{"stop_id":"000751420000","stop_name":"Hjulbjergvej/Kvædevej (Århus)","stop_lat":"56.114008000000","stop_lon":"10.187731000000"},"000751420400":{"stop_id":"000751420400","stop_name":"Skjoldhøjvej/Æbeløvej (Aarhus)","stop_lat":"56.172631000000","stop_lon":"10.097103000000"},"000751420500":{"stop_id":"000751420500","stop_name":"Skjoldhøjvej/Nekseløvej (Aarhus)","stop_lat":"56.173096000000","stop_lon":"10.104445000000"},"000751420600":{"stop_id":"000751420600","stop_name":"Skjoldhøjvej v. Skjoldhøjskolen (Aarhus)","stop_lat":"56.174589000000","stop_lon":"10.111253000000"},"000751420900":{"stop_id":"000751420900","stop_name":"Jernaldervej v. Holmstrup (Aarhus)","stop_lat":"56.173689000000","stop_lon":"10.133181000000"},"000751421000":{"stop_id":"000751421000","stop_name":"Jernaldervej v. Runebakken (Aarhus)","stop_lat":"56.172481000000","stop_lon":"10.140523000000"},"000751421200":{"stop_id":"000751421200","stop_name":"Jernaldervej v. Ellekærskolen (Aarhus)","stop_lat":"56.170974000000","stop_lon":"10.148934000000"},"000751421300":{"stop_id":"000751421300","stop_name":"Åby Ringvej/Bispehaven (Aarhus)","stop_lat":"56.169374000000","stop_lon":"10.153814000000"},"000751421400":{"stop_id":"000751421400","stop_name":"AUH Skejby, indgang E,F (Aarhus)","stop_lat":"56.189988000000","stop_lon":"10.176525000000"},"000751421500":{"stop_id":"000751421500","stop_name":"Jernaldervej/Stenaldervej (Aarhus)","stop_lat":"56.174554000000","stop_lon":"10.127086000000"},"000751421600":{"stop_id":"000751421600","stop_name":"Anelystvej v. Anelystparken (Aarhus)","stop_lat":"56.181935000000","stop_lon":"10.100671000000"},"000751421700":{"stop_id":"000751421700","stop_name":"AUH Skejby, indgang G (Aarhus)","stop_lat":"56.192657000000","stop_lon":"10.174641000000"},"000751421800":{"stop_id":"000751421800","stop_name":"AUH Skejby, indgang H (Aarhus)","stop_lat":"56.193624000000","stop_lon":"10.170239000000"},"000751422000":{"stop_id":"000751422000","stop_name":"Kolt Østervej/Kolt Kirkevej (Aarhus)","stop_lat":"56.106710000000","stop_lon":"10.066847000000"},"000751422100":{"stop_id":"000751422100","stop_name":"Kolt Østervej/Kunnerupvej (Aarhus)","stop_lat":"56.107213000000","stop_lon":"10.071990000000"},"000751422200":{"stop_id":"000751422200","stop_name":"Kolt Østervej/Pilegårdsvej (Aarhus)","stop_lat":"56.107944000000","stop_lon":"10.075821000000"},"000751422300":{"stop_id":"000751422300","stop_name":"Kolt Østervej/Tunnelen (Aarhus)","stop_lat":"56.108843000000","stop_lon":"10.078837000000"},"000751422600":{"stop_id":"000751422600","stop_name":"Hovedvejen/Jegstrupvej (Aarhus)","stop_lat":"56.107469000000","stop_lon":"10.111215000000"},"000751422700":{"stop_id":"000751422700","stop_name":"Møllebakken/Sletvej (Aarhus)","stop_lat":"56.109189000000","stop_lon":"10.118742000000"},"000751422800":{"stop_id":"000751422800","stop_name":"Skanderborgvej/Hasselager Allé (Aarhus)","stop_lat":"56.111843000000","stop_lon":"10.125300000000"},"000751422900":{"stop_id":"000751422900","stop_name":"Skanderborgvej/Hasselager Centervej (Aarhus)","stop_lat":"56.115078000000","stop_lon":"10.133163000000"},"000751423000":{"stop_id":"000751423000","stop_name":"Skanderborgv. S.Lofts Vej (Aarh)","stop_lat":"56.119191000000","stop_lon":"10.143079000000"},"000751423300":{"stop_id":"000751423300","stop_name":"Gudrunsvej nr. 22-30 (Aarhus)","stop_lat":"56.160332000000","stop_lon":"10.140581000000"},"000751423400":{"stop_id":"000751423400","stop_name":"Gudrunsvej nr. 68-76 (Aarhus)","stop_lat":"56.155751000000","stop_lon":"10.138417000000"},"000751423500":{"stop_id":"000751423500","stop_name":"Holmstrupgårdvej/Sintrupvej (Aarhus)","stop_lat":"56.166195000000","stop_lon":"10.120383000000"},"000751423600":{"stop_id":"000751423600","stop_name":"Kolt Østervej/Kunneruphøj (Aarhus)","stop_lat":"56.109767000000","stop_lon":"10.083124000000"},"000751423700":{"stop_id":"000751423700","stop_name":"Vangsbovej/Skovhøj (Aarhus)","stop_lat":"56.111028000000","stop_lon":"10.099000000000"},"000751423800":{"stop_id":"000751423800","stop_name":"Vangsbovej/Hasselbakken (Aarhus)","stop_lat":"56.109010000000","stop_lon":"10.098637000000"},"000751423900":{"stop_id":"000751423900","stop_name":"Vangsbovej/Buen (Aarhus)","stop_lat":"56.106814000000","stop_lon":"10.099008000000"},"000751424000":{"stop_id":"000751424000","stop_name":"Edwin Rahrs Vej/Holmstrupgårdvej (Aarhus)","stop_lat":"56.163074000000","stop_lon":"10.121725000000"},"000751424800":{"stop_id":"000751424800","stop_name":"Nørre Allé (Aarhus)","stop_lat":"56.160172000000","stop_lon":"10.206626000000"},"000751425000":{"stop_id":"000751425000","stop_name":"Brabrand Nord. Skjoldhøjkollegiet Spobjergvej (Aar","stop_lat":"56.167741000000","stop_lon":"10.117336000000"},"000751425600":{"stop_id":"000751425600","stop_name":"Hejredalsvej/Stenbækvej (Aarhus)","stop_lat":"56.153915000000","stop_lon":"10.118078000000"},"000751425700":{"stop_id":"000751425700","stop_name":"Hejredalsvej/Ligustervej (Aarhus)","stop_lat":"56.156025000000","stop_lon":"10.124241000000"},"000751425800":{"stop_id":"000751425800","stop_name":"Silkeborgvej/Stenbækvej (Aarhus)","stop_lat":"56.152806000000","stop_lon":"10.117546000000"},"000751426000":{"stop_id":"000751426000","stop_name":"J. P. Larsens Vej/Hoffmannsvej (Aarhus)","stop_lat":"56.155091000000","stop_lon":"10.103187000000"},"000751426100":{"stop_id":"000751426100","stop_name":"Langdalsvej/Høiriisgårdsvej (Aarhus)","stop_lat":"56.155958000000","stop_lon":"10.100701000000"},"000751426200":{"stop_id":"000751426200","stop_name":"Langdalsvej/Lykkensdalsvej (Aarhus)","stop_lat":"56.157606000000","stop_lon":"10.100249000000"},"000751426300":{"stop_id":"000751426300","stop_name":"Langdalsvej/Labyrinten (Aarhus)","stop_lat":"56.160429000000","stop_lon":"10.102117000000"},"000751426400":{"stop_id":"000751426400","stop_name":"J. P. Larsens Vej/Udsigten (Aarhus)","stop_lat":"56.154107000000","stop_lon":"10.113769000000"},"000751426500":{"stop_id":"000751426500","stop_name":"Langdalsvej/Edwin Rahrs Vej (Aarhus)","stop_lat":"56.164495000000","stop_lon":"10.100671000000"},"000751426900":{"stop_id":"000751426900","stop_name":"Silkeborgvej/Sødalsvej (Aarhus)","stop_lat":"56.153295000000","stop_lon":"10.093960000000"},"000751427000":{"stop_id":"000751427000","stop_name":"Hovedgaden/Voldbækvej. Brabrand (Aarhus)","stop_lat":"56.153246000000","stop_lon":"10.100543000000"},"000751427100":{"stop_id":"000751427100","stop_name":"Hovedgaden v. Brabrandhus (Aarhus)","stop_lat":"56.153254000000","stop_lon":"10.103666000000"},"000751427200":{"stop_id":"000751427200","stop_name":"Hovedgaden v. Engdalskolen. Brabrand (Aarhus)","stop_lat":"56.153325000000","stop_lon":"10.107838000000"},"000751427300":{"stop_id":"000751427300","stop_name":"Hovedgaden/Engbakken. Brabrand (Aarhus)","stop_lat":"56.152856000000","stop_lon":"10.112026000000"},"000751427400":{"stop_id":"000751427400","stop_name":"Engdalsvej/Engbakken. Brabrand (Aarhus)","stop_lat":"56.151150000000","stop_lon":"10.113876000000"},"000751427500":{"stop_id":"000751427500","stop_name":"Engdalsvej v. Brabrand Idrætsanlæg (Aarhus)","stop_lat":"56.150285000000","stop_lon":"10.119035000000"},"000751427600":{"stop_id":"000751427600","stop_name":"Silkeborgvej/Tunnelen (Aarhus)","stop_lat":"56.153918000000","stop_lon":"10.105746000000"},"000751427700":{"stop_id":"000751427700","stop_name":"Brabrand Skovvej (Aarhus)","stop_lat":"56.149278000000","stop_lon":"10.129050000000"},"000751418200":{"stop_id":"000751418200","stop_name":"Skejbyparken (Aarhus)","stop_lat":"56.196775000000","stop_lon":"10.186597000000"},"000751418300":{"stop_id":"000751418300","stop_name":"Skovgårdsvænget/Frisenholt. Tranbjerg (Aarhus)","stop_lat":"56.087547000000","stop_lon":"10.115351000000"},"000751418500":{"stop_id":"000751418500","stop_name":"Hjulbjergvej v. Plejehjemmet Sct. Olaf (Århus)","stop_lat":"56.114383000000","stop_lon":"10.183336000000"},"000751418600":{"stop_id":"000751418600","stop_name":"Hjulbjergvej v. Holme Sognegård (Aarhus)","stop_lat":"56.114616000000","stop_lon":"10.180529000000"},"000751418800":{"stop_id":"000751418800","stop_name":"Holme Ringvej/Pihlkjærsvej (Aarhus)","stop_lat":"56.120964000000","stop_lon":"10.161147000000"},"000751418900":{"stop_id":"000751418900","stop_name":"Holme Ringvej/Borgvold v. Lokalcenter Viby (Aarhus","stop_lat":"56.125824000000","stop_lon":"10.162243000000"},"000751419000":{"stop_id":"000751419000","stop_name":"Viby Ringvej/Ormslevvej (Aarhus)","stop_lat":"56.130542000000","stop_lon":"10.159264000000"},"000751412500":{"stop_id":"000751412500","stop_name":"Hørretvej/Borrevænget. Mårslet (Aarhus)","stop_lat":"56.072190000000","stop_lon":"10.165046000000"},"000751412600":{"stop_id":"000751412600","stop_name":"Hørretvej/Stenege (Aarhus)","stop_lat":"56.091055000000","stop_lon":"10.197440000000"},"000751412700":{"stop_id":"000751412700","stop_name":"Jegstrupvej/Grønløkke Allé. Tranbjerg (Aarhus)","stop_lat":"56.091757000000","stop_lon":"10.117707000000"},"000751412800":{"stop_id":"000751412800","stop_name":"Grønløkke SFO (Aarhus)","stop_lat":"56.095048000000","stop_lon":"10.122415000000"},"000751412900":{"stop_id":"000751412900","stop_name":"Grønløkkeskolen (Aarhus)","stop_lat":"56.094359000000","stop_lon":"10.128102000000"},"000751413000":{"stop_id":"000751413000","stop_name":"Tranbjerg Hovedgade v/Grønløkke Allé (Aarhus)","stop_lat":"56.093782000000","stop_lon":"10.135141000000"},"000751413100":{"stop_id":"000751413100","stop_name":"Tranbjerg Hovedgade/Mejerivænget (Aarhus)","stop_lat":"56.098473000000","stop_lon":"10.138012000000"},"000751413200":{"stop_id":"000751413200","stop_name":"Christian X's Vej/Gunnar Clausens Vej (Aarhus)","stop_lat":"56.107990000000","stop_lon":"10.150449000000"},"000751413300":{"stop_id":"000751413300","stop_name":"Holmevej/Teglgårdsvej (Århus)","stop_lat":"56.115610000000","stop_lon":"10.162932000000"},"000751413400":{"stop_id":"000751413400","stop_name":"Holmevej/Holmegårdsvej (Århus)","stop_lat":"56.116153000000","stop_lon":"10.168176000000"},"000751413500":{"stop_id":"000751413500","stop_name":"Holmevej/Mølleskovvej v. Rundhøjskolen (Aarhus)","stop_lat":"56.118106000000","stop_lon":"10.178288000000"},"000751413600":{"stop_id":"000751413600","stop_name":"Holmevej/Filippavej v. Rundhøj Centret (Aarhus)","stop_lat":"56.119230000000","stop_lon":"10.181925000000"},"000751413700":{"stop_id":"000751413700","stop_name":"Holmevej/Saralyst Allé (Aarhus)","stop_lat":"56.123952000000","stop_lon":"10.193652000000"},"000751413800":{"stop_id":"000751413800","stop_name":"Carl Nielsens Vej v. Væddeløbsbanen (Aarhus)","stop_lat":"56.126969000000","stop_lon":"10.197607000000"},"000751413900":{"stop_id":"000751413900","stop_name":"Carl Nielsens Vej/Niels W. Gades Vej (Aarhus)","stop_lat":"56.133505000000","stop_lon":"10.207336000000"},"000751414000":{"stop_id":"000751414000","stop_name":"Strandvejen/Carl Nielsens Vej v. Stefanshjemmet (A","stop_lat":"56.135404000000","stop_lon":"10.208859000000"},"000751414200":{"stop_id":"000751414200","stop_name":"M. P. Bruuns Gade/Jægergårdsgade (Aarhus)","stop_lat":"56.147910000000","stop_lon":"10.203522000000"},"000751414300":{"stop_id":"000751414300","stop_name":"H. H. Seedorffs Stræde (Aarhus)","stop_lat":"56.153590000000","stop_lon":"10.204375000000"},"000751414400":{"stop_id":"000751414400","stop_name":"Busgaden (Aarhus)","stop_lat":"56.155504000000","stop_lon":"10.206174000000"},"000751414500":{"stop_id":"000751414500","stop_name":"Kirkegårdsvej (Aarhus)","stop_lat":"56.166555000000","stop_lon":"10.213606000000"},"000751414600":{"stop_id":"000751414600","stop_name":"Tordenskjoldsgade/Niels Juels Gade (Aarhus)","stop_lat":"56.169679000000","stop_lon":"10.215783000000"},"000751414700":{"stop_id":"000751414700","stop_name":"Tordenskjoldsgade/Herluf Trolles Gade (Aarhus)","stop_lat":"56.172332000000","stop_lon":"10.216462000000"},"000751414800":{"stop_id":"000751414800","stop_name":"Tordenskjoldsgade/Skovvangsvej (Aarhus)","stop_lat":"56.174086000000","stop_lon":"10.217178000000"},"000751414900":{"stop_id":"000751414900","stop_name":"Emil Vetts Passage (Aarhus)","stop_lat":"56.156878000000","stop_lon":"10.205315000000"},"000751415000":{"stop_id":"000751415000","stop_name":"Klostertorvet (Aarhus)","stop_lat":"56.158483000000","stop_lon":"10.205704000000"},"000751415100":{"stop_id":"000751415100","stop_name":"Nørregade (Aarhus)","stop_lat":"56.160711000000","stop_lon":"10.209380000000"},"000751415300":{"stop_id":"000751415300","stop_name":"Tranbjerg Øst. Hyrdevænget (Aarhus)","stop_lat":"56.084620000000","stop_lon":"10.152244000000"},"000751415400":{"stop_id":"000751415400","stop_name":"Østerby Allé/Skolevænget. Tranbjerg (Aarhus)","stop_lat":"56.087188000000","stop_lon":"10.140845000000"},"000751415500":{"stop_id":"000751415500","stop_name":"Torve Allé/Østerby Allé (Aarhus)","stop_lat":"56.090510000000","stop_lon":"10.142069000000"},"000751415600":{"stop_id":"000751415600","stop_name":"Torve Allé/Kirketorvet. Tranbjerg (Aarhus)","stop_lat":"56.091888000000","stop_lon":"10.136870000000"},"000751415700":{"stop_id":"000751415700","stop_name":"Torvevænget. Tranbjerg (Aarhus)","stop_lat":"56.093597000000","stop_lon":"10.138688000000"},"000751415800":{"stop_id":"000751415800","stop_name":"Mårslet. Nymarks Allé (Aarhus)","stop_lat":"56.058312000000","stop_lon":"10.164547000000"},"000751415900":{"stop_id":"000751415900","stop_name":"Søren Nymarks Vej (Aarhus)","stop_lat":"56.108562000000","stop_lon":"10.154679000000"},"000751416000":{"stop_id":"000751416000","stop_name":"Søren Nymarks Vej/Axel Kiers Vej (Aarhus)","stop_lat":"56.109996000000","stop_lon":"10.157890000000"},"000751416100":{"stop_id":"000751416100","stop_name":"Axel Kiers Vej/Michael Drewsens Vej (Aarhus)","stop_lat":"56.108876000000","stop_lon":"10.160462000000"},"000751416200":{"stop_id":"000751416200","stop_name":"Axel Kiers Vej v. Emballagefabrikken (Aarhus)","stop_lat":"56.107621000000","stop_lon":"10.164926000000"},"000751416300":{"stop_id":"000751416300","stop_name":"Bjødstrupvej/Urmagertoften (Aarhus)","stop_lat":"56.107908000000","stop_lon":"10.167813000000"},"000751416400":{"stop_id":"000751416400","stop_name":"Bjødstrupvej/Kalkærparken (Aarhus)","stop_lat":"56.110142000000","stop_lon":"10.168203000000"},"000751416500":{"stop_id":"000751416500","stop_name":"Bjødstrupvej/Axel Gruhns Vej (Aarhus)","stop_lat":"56.112263000000","stop_lon":"10.169087000000"},"000751416700":{"stop_id":"000751416700","stop_name":"Holme Møllevej/Rundhøj Allé (Aarhus)","stop_lat":"56.118091000000","stop_lon":"10.172272000000"},"000751416800":{"stop_id":"000751416800","stop_name":"Mårslet Byvej/Visbjerg Hegn (Aarhus)","stop_lat":"56.072894000000","stop_lon":"10.166562000000"},"000751416900":{"stop_id":"000751416900","stop_name":"Tandervej/Nymarks Allé. Mårslet (Aarhus)","stop_lat":"56.061773000000","stop_lon":"10.155738000000"},"000751417000":{"stop_id":"000751417000","stop_name":"Christian X's Vej/Vilhelm Becks Vej (Aarhus)","stop_lat":"56.129509000000","stop_lon":"10.173552000000"},"000751417100":{"stop_id":"000751417100","stop_name":"Christian X's Vej/Ellehammervej v. Viadukten (Aarh","stop_lat":"56.134249000000","stop_lon":"10.174887000000"},"000751417200":{"stop_id":"000751417200","stop_name":"Vejlby Centervej/Nyringen v. Vejlby-Risskov Hallen","stop_lat":"56.192516000000","stop_lon":"10.205111000000"},"000751417300":{"stop_id":"000751417300","stop_name":"Vejlby Centervej/Skejbyvej v. Risskov Gymnasium (A","stop_lat":"56.196016000000","stop_lon":"10.209234000000"},"000751417400":{"stop_id":"000751417400","stop_name":"Skejbyvej/Kantorvænget (Aarhus)","stop_lat":"56.198161000000","stop_lon":"10.203080000000"},"000751417500":{"stop_id":"000751417500","stop_name":"Tunnelen/Skejbygårdsvej (Aarhus)","stop_lat":"56.196137000000","stop_lon":"10.198730000000"},"000751417700":{"stop_id":"000751417700","stop_name":"Christian X's Vej/Balagervej (Aarhus)","stop_lat":"56.126261000000","stop_lon":"10.172070000000"},"000751417800":{"stop_id":"000751417800","stop_name":"Skejbygårdsvej/Skejby Busvej v. Skejby Centret (Aa","stop_lat":"56.194986000000","stop_lon":"10.195083000000"},"000751417900":{"stop_id":"000751417900","stop_name":"Skejbyparken/TV2 Østjylland (Aarhus)","stop_lat":"56.194047000000","stop_lon":"10.188962000000"},"000751418000":{"stop_id":"000751418000","stop_name":"Østerby Allé/Kærvænget. Tranbjerg (Aarhus)","stop_lat":"56.085009000000","stop_lon":"10.140379000000"},"000751418100":{"stop_id":"000751418100","stop_name":"Tingskov Allé/Horsevænget. Tranbjerg (Aarhus)","stop_lat":"56.084179000000","stop_lon":"10.146542000000"},"000751100800":{"stop_id":"000751100800","stop_name":"Silkeborgvej/Vestre Ringgade (Aarhus)","stop_lat":"56.156261000000","stop_lon":"10.182691000000"},"000751002900":{"stop_id":"000751002900","stop_name":"Aarhus Universitetshospital. Nørrebrogade","stop_lat":"56.167406000000","stop_lon":"10.207433000000"},"000751003300":{"stop_id":"000751003300","stop_name":"Kystvejen, Navitas (Aarhus)","stop_lat":"56.159149000000","stop_lon":"10.213824000000"},"000751003400":{"stop_id":"000751003400","stop_name":"Framlev Korsvej/Stillingvej. Harlev (Aarhus)","stop_lat":"56.151843000000","stop_lon":"10.008019000000"},"000751003500":{"stop_id":"000751003500","stop_name":"Framlev Korsvej/Blomsterhaven (Aarhus)","stop_lat":"56.151667000000","stop_lon":"10.003169000000"},"000751003600":{"stop_id":"000751003600","stop_name":"Kærgårdsvej/Østergårdsvej. Solbjerg (Aarhus)","stop_lat":"56.035681000000","stop_lon":"10.092460000000"},"000751003700":{"stop_id":"000751003700","stop_name":"Solbjerg Hovedgade/Sødalen (Aarhus)","stop_lat":"56.041545000000","stop_lon":"10.082657000000"},"000751003800":{"stop_id":"000751003800","stop_name":"Slet. Christian X's Vej/Sletvej (Aarhus)","stop_lat":"56.103938000000","stop_lon":"10.144653000000"},"000751004100":{"stop_id":"000751004100","stop_name":"Landevejen/Orholt Allé. Tranbjerg (Aarhus)","stop_lat":"56.084538000000","stop_lon":"10.122158000000"},"000751004500":{"stop_id":"000751004500","stop_name":"Silkeborgvej/Frøkærvej (Aarhus)","stop_lat":"56.150658000000","stop_lon":"9.974312000000"},"000751004600":{"stop_id":"000751004600","stop_name":"Lillering Skov v/kommunegrænse","stop_lat":"56.150231000000","stop_lon":"9.962260000000"},"000751009100":{"stop_id":"000751009100","stop_name":"City Vest/Louisevej","stop_lat":"56.153055000000","stop_lon":"10.136486000000"},"000751009200":{"stop_id":"000751009200","stop_name":"Sønder Allé v. Aarhus Rutebilstation","stop_lat":"56.152144000000","stop_lon":"10.209739000000"},"000751009300":{"stop_id":"000751009300","stop_name":"Jyllands Allé/Fredensvang Runddel (Aarhus)","stop_lat":"56.127440000000","stop_lon":"10.185056000000"},"000751009500":{"stop_id":"000751009500","stop_name":"Viborgvej/Vestre Ringgade","stop_lat":"56.160940000000","stop_lon":"10.182980000000"},"000751009700":{"stop_id":"000751009700","stop_name":"Orholt Allé. Tranbjerg (Aarhus)","stop_lat":"56.085608000000","stop_lon":"10.119103000000"},"000751009800":{"stop_id":"000751009800","stop_name":"Aarhus Universitetshospital. Nørrebrogade/Peter Sa","stop_lat":"56.168215000000","stop_lon":"10.210148000000"},"000751009900":{"stop_id":"000751009900","stop_name":"Aarhus Universitetshospital. Nørrebrogade/Nørre Bo","stop_lat":"56.165571000000","stop_lon":"10.209469000000"},"000751100100":{"stop_id":"000751100100","stop_name":"Thomasminde (Aarhus)","stop_lat":"56.269666000000","stop_lon":"10.152084000000"},"000751100200":{"stop_id":"000751100200","stop_name":"Grenåvej/Vejlby Centervej (Aarhus)","stop_lat":"56.195646000000","stop_lon":"10.220440000000"},"000751100400":{"stop_id":"000751100400","stop_name":"Lisbjerg (Aarhus)","stop_lat":"56.222102000000","stop_lon":"10.164155000000"},"000751100402":{"stop_id":"000751100402","stop_name":"Randersvej Ø.Møllevej","stop_lat":"56.240024000000","stop_lon":"10.158794000000"},"000751100501":{"stop_id":"000751100501","stop_name":"Grenåv 200m f NyStudstr.","stop_lat":"56.264606000000","stop_lon":"10.308676000000"},"000751100502":{"stop_id":"000751100502","stop_name":"Grenåvej Violskrænten","stop_lat":"56.270885000000","stop_lon":"10.310521000000"},"000751100503":{"stop_id":"000751100503","stop_name":"Grenåvej Solvænget","stop_lat":"56.273017000000","stop_lon":"10.312015000000"},"000745200300":{"stop_id":"000745200300","stop_name":"Vestermøllevej/Gl.Gramvej. Fruering (Skanderborg)","stop_lat":"56.034727000000","stop_lon":"9.991563000000"},"000751000601":{"stop_id":"000751000601","stop_name":"Vorrevej Segaltvej","stop_lat":"56.276608000000","stop_lon":"10.311427000000"},"000751000603":{"stop_id":"000751000603","stop_name":"Grenåvej Ceresvej","stop_lat":"56.278077000000","stop_lon":"10.317777000000"},"000751000604":{"stop_id":"000751000604","stop_name":"Grenåvej Møllegården","stop_lat":"56.280678000000","stop_lon":"10.320741000000"},"000751000606":{"stop_id":"000751000606","stop_name":"Grenåvej Vosnæsparken","stop_lat":"56.283164000000","stop_lon":"10.323557000000"},"000751000900":{"stop_id":"000751000900","stop_name":"Højbjerg Torv","stop_lat":"56.116435000000","stop_lon":"10.207123000000"},"000751001600":{"stop_id":"000751001600","stop_name":"Banegårdspladsen","stop_lat":"56.150474000000","stop_lon":"10.203199000000"},"000751002300":{"stop_id":"000751002300","stop_name":"Byagervej/Byagervænget. Beder (Aarhus)","stop_lat":"56.054063000000","stop_lon":"10.212945000000"},"000751002301":{"stop_id":"000751002301","stop_name":"Byagervej/Byagerparken. Beder","stop_lat":"56.055205000000","stop_lon":"10.209176000000"},"000745012100":{"stop_id":"000745012100","stop_name":"Stilling Byvej/Gramvej. Stilling (Skanderborg)","stop_lat":"56.059568000000","stop_lon":"9.982982000000"},"000745012300":{"stop_id":"000745012300","stop_name":"Århusvej/Stilling Kirkevej. Stilling (Skanderborg)","stop_lat":"56.064782000000","stop_lon":"9.995017000000"},"000745012400":{"stop_id":"000745012400","stop_name":"Århusvej/Industrivej. Stilling (Skanderborg)","stop_lat":"56.067676000000","stop_lon":"10.002641000000"},"000745013500":{"stop_id":"000745013500","stop_name":"Højvangen v/vendeplads. Skanderborg","stop_lat":"56.036034000000","stop_lon":"9.962579000000"},"000745001400":{"stop_id":"000745001400","stop_name":"Stiling Landevej/Sverigesvej. Skanderborg","stop_lat":"56.051345000000","stop_lon":"9.959139000000"},"000745001500":{"stop_id":"000745001500","stop_name":"Århusvej/Stadionvej. Stilling (Skanderborg)","stop_lat":"56.062006000000","stop_lon":"9.987156000000"},"000745011300":{"stop_id":"000745011300","stop_name":"Holtskovvej/Grævlingevej.  Skanderborg","stop_lat":"56.037435000000","stop_lon":"9.965037000000"},"000745011400":{"stop_id":"000745011400","stop_name":"Højvangen/Jægerstien. Skanderborg","stop_lat":"56.037344000000","stop_lon":"9.959433000000"},"000745011600":{"stop_id":"000745011600","stop_name":"Højvangen/Fuglestien. Skanderborg","stop_lat":"56.039488000000","stop_lon":"9.955169000000"},"000745011700":{"stop_id":"000745011700","stop_name":"Stiling Landevej/Virringvej. Skanderborg","stop_lat":"56.054945000000","stop_lon":"9.972186000000"},"000745011800":{"stop_id":"000745011800","stop_name":"Højvangen/Digterstien. Skanderborg","stop_lat":"56.041794000000","stop_lon":"9.951004000000"},"000727001500":{"stop_id":"000727001500","stop_name":"Kysing Strand v/P-plads (Odder)","stop_lat":"56.001515000000","stop_lon":"10.260385000000"},"000727002000":{"stop_id":"000727002000","stop_name":"Norsminde. Norsmindevej/Fjordvej (Odder)","stop_lat":"56.022780000000","stop_lon":"10.260837000000"},"000727003400":{"stop_id":"000727003400","stop_name":"Kystvejen/Rude Havvej (Odder)","stop_lat":"55.997608000000","stop_lon":"10.254934000000"},"000727004000":{"stop_id":"000727004000","stop_name":"Tvenstrup. Århusvej/Kragebækvej (Odder)","stop_lat":"55.999871000000","stop_lon":"10.166301000000"},"000727004001":{"stop_id":"000727004001","stop_name":"Århusvej/Assedrupvej (Odder)","stop_lat":"56.012848000000","stop_lon":"10.174584000000"},"000727004002":{"stop_id":"000727004002","stop_name":"Århusvej/Svorbækvej (Odder)","stop_lat":"56.006657000000","stop_lon":"10.170787000000"},"000711100300":{"stop_id":"000711100300","stop_name":"Lading v/Møllebakken","stop_lat":"56.222456000000","stop_lon":"9.971133000000"},"000711100301":{"stop_id":"000711100301","stop_name":"Viborgvej Skjoldhøjvej","stop_lat":"56.220224000000","stop_lon":"9.981817000000"},"000711100400":{"stop_id":"000711100400","stop_name":"Fajstrup","stop_lat":"56.225824000000","stop_lon":"9.959783000000"},"000711300300":{"stop_id":"000711300300","stop_name":"Landsbæk","stop_lat":"56.281808000000","stop_lon":"9.951881000000"},"000713000100":{"stop_id":"000713000100","stop_name":"Søften","stop_lat":"56.237031000000","stop_lon":"10.087617000000"},"000713000200":{"stop_id":"000713000200","stop_name":"Foldby","stop_lat":"56.251829000000","stop_lon":"10.023412000000"},"000713000300":{"stop_id":"000713000300","stop_name":"Århusvej/Alfa","stop_lat":"56.232357000000","stop_lon":"10.103003000000"},"000713000600":{"stop_id":"000713000600","stop_name":"Århusvej/Ådalsvej","stop_lat":"56.253093000000","stop_lon":"10.068445000000"},"000713000700":{"stop_id":"000713000700","stop_name":"Århusvej/Engdalsvej","stop_lat":"56.243964000000","stop_lon":"10.077825000000"},"000713000800":{"stop_id":"000713000800","stop_name":"Ådalsvej/Rønvangen","stop_lat":"56.256280000000","stop_lon":"10.070907000000"},"000713000900":{"stop_id":"000713000900","stop_name":"Søftenvej/Lisbjerg Erhvervspark","stop_lat":"56.215375000000","stop_lon":"10.138732000000"},"000713001000":{"stop_id":"000713001000","stop_name":"Hinnerup v. Damsbrovej","stop_lat":"56.248929000000","stop_lon":"10.070928000000"},"000713001100":{"stop_id":"000713001100","stop_name":"Rylevej","stop_lat":"56.278954000000","stop_lon":"10.064046000000"},"000713001200":{"stop_id":"000713001200","stop_name":"Vitten (Hinnerup)","stop_lat":"56.291736000000","stop_lon":"9.997641000000"},"000713001400":{"stop_id":"000713001400","stop_name":"Rylevej/Nørregade","stop_lat":"56.270543000000","stop_lon":"10.065234000000"},"000713002000":{"stop_id":"000713002000","stop_name":"Korsholm skole (Foldby)","stop_lat":"56.249857000000","stop_lon":"10.030428000000"},"000713002500":{"stop_id":"000713002500","stop_name":"Norring","stop_lat":"56.247443000000","stop_lon":"10.041950000000"},"000713002700":{"stop_id":"000713002700","stop_name":"Ådalsvej/Samsøvej","stop_lat":"56.253712000000","stop_lon":"10.069592000000"},"000713003101":{"stop_id":"000713003101","stop_name":"Ledvogtervej/Vestergade","stop_lat":"56.267927000000","stop_lon":"10.064321000000"},"000715000800":{"stop_id":"000715000800","stop_name":"Århusvej/Volden. Hørning (Skanderborg)","stop_lat":"56.094540000000","stop_lon":"10.049471000000"},"000713101100":{"stop_id":"000713101100","stop_name":"Haldum (Hinnerup)","stop_lat":"56.280076000000","stop_lon":"10.042014000000"},"000713200900":{"stop_id":"000713200900","stop_name":"Hinnerup Kildevangen","stop_lat":"56.275502000000","stop_lon":"10.071525000000"},"000715000100":{"stop_id":"000715000100","stop_name":"Jeksen v/Hørning (Skanderborg)","stop_lat":"56.095058000000","stop_lon":"9.971895000000"},"000715000500":{"stop_id":"000715000500","stop_name":"Århusvej/Nørre Allé. Hørning (Skanderborg)","stop_lat":"56.084238000000","stop_lon":"10.037219000000"},"000715000600":{"stop_id":"000715000600","stop_name":"Bjertrup. Jensen Dalsvej/Dørupvej (Skanderborg)","stop_lat":"56.082753000000","stop_lon":"10.001586000000"},"000715000700":{"stop_id":"000715000700","stop_name":"Hørning v/torvet (Skanderborg)","stop_lat":"56.087781000000","stop_lon":"10.036961000000"},"000709000100":{"stop_id":"000709000100","stop_name":"Lyngå (Hadsten)","stop_lat":"56.316623000000","stop_lon":"9.978712000000"},"000709000200":{"stop_id":"000709000200","stop_name":"Ødum (Hadsten)","stop_lat":"56.311597000000","stop_lon":"10.134917000000"},"000709000203":{"stop_id":"000709000203","stop_name":"Ødum v/kirken","stop_lat":"56.311882000000","stop_lon":"10.131256000000"},"000709000300":{"stop_id":"000709000300","stop_name":"Selling (Hadsten)","stop_lat":"56.310831000000","stop_lon":"10.097295000000"},"000709000500":{"stop_id":"000709000500","stop_name":"Hadsten Kirkevej","stop_lat":"56.329429000000","stop_lon":"10.045493000000"},"000709000600":{"stop_id":"000709000600","stop_name":"Favrskov Gymnasium/Ellemosevej","stop_lat":"56.330193000000","stop_lon":"10.055008000000"},"000709000701":{"stop_id":"000709000701","stop_name":"Østergade Gl Hovvej","stop_lat":"56.323857000000","stop_lon":"10.063613000000"},"000709000702":{"stop_id":"000709000702","stop_name":"Østergade Tinghøjvej","stop_lat":"56.324118000000","stop_lon":"10.059287000000"},"000709100100":{"stop_id":"000709100100","stop_name":"Hadbjerg (Hadsten)","stop_lat":"56.329795000000","stop_lon":"10.108804000000"},"000709100800":{"stop_id":"000709100800","stop_name":"Hadbjerg v/ldv. (Hadsten)","stop_lat":"56.329720000000","stop_lon":"10.120139000000"},"000709200800":{"stop_id":"000709200800","stop_name":"Hammelvej (Hadsten)","stop_lat":"56.320822000000","stop_lon":"10.015183000000"},"000711000100":{"stop_id":"000711000100","stop_name":"Skjoldelev Foldby","stop_lat":"56.230716000000","stop_lon":"10.011218000000"},"000701001000":{"stop_id":"000701001000","stop_name":"Skødshoved (Mols)","stop_lat":"56.181025000000","stop_lon":"10.377121000000"},"000703000500":{"stop_id":"000703000500","stop_name":"Langelinie/Engvej. Herskind","stop_lat":"56.183911000000","stop_lon":"9.970981000000"},"000703000501":{"stop_id":"000703000501","stop_name":"Langelinie/Ladingvej. Herskind","stop_lat":"56.184162000000","stop_lon":"9.964221000000"},"000703000702":{"stop_id":"000703000702","stop_name":"Hørslevvej/Schiødtsminde. Skovby (Skanderborg)","stop_lat":"56.158872000000","stop_lon":"9.952140000000"},"000703000703":{"stop_id":"000703000703","stop_name":"Hørslevvej/Skovbyparken. Skovby (Skanderborg)","stop_lat":"56.158645000000","stop_lon":"9.948946000000"},"000703001400":{"stop_id":"000703001400","stop_name":"Århusvej/Ursusvej. Skovby (Skanderborg)","stop_lat":"56.150010000000","stop_lon":"9.955961000000"},"000703001500":{"stop_id":"000703001500","stop_name":"Stjær Østerbro/Kirkestien (Skanderborg)","stop_lat":"56.117030000000","stop_lon":"9.955368000000"},"000703001501":{"stop_id":"000703001501","stop_name":"Stjær. Stjærvej/Toftkærvej (Skanderborg)","stop_lat":"56.119469000000","stop_lon":"9.953707000000"},"000703001800":{"stop_id":"000703001800","stop_name":"Skovby. Hørslevvej/Præstbovej","stop_lat":"56.159063000000","stop_lon":"9.956476000000"},"000751475100":{"stop_id":"000751475100","stop_name":"Engdalsvej/Tunnelen (Aarhus)","stop_lat":"56.149619000000","stop_lon":"10.124166000000"},"000751475200":{"stop_id":"000751475200","stop_name":"Grenåvej/Mejlbyvej. Egå (Aarhus)","stop_lat":"56.208049000000","stop_lon":"10.270925000000"},"000751475300":{"stop_id":"000751475300","stop_name":"Tingskov Allé/Trankær Mosevej. Tranbjerg (Aarhus)","stop_lat":"56.082804000000","stop_lon":"10.128985000000"},"000751475400":{"stop_id":"000751475400","stop_name":"Aarhus Universitet. Kemisk Institut","stop_lat":"56.168128000000","stop_lon":"10.197937000000"},"000751475600":{"stop_id":"000751475600","stop_name":"Skanderborgvej/Marselis Boulevard (Aarhus)","stop_lat":"56.140133000000","stop_lon":"10.182631000000"},"000751475700":{"stop_id":"000751475700","stop_name":"Oddervej/Brunbakkevej v. Aarhus Efterskole","stop_lat":"56.099859000000","stop_lon":"10.208710000000"},"000751475701":{"stop_id":"000751475701","stop_name":"Oddervej/Moesgård Allé. Højbjerg","stop_lat":"56.085867000000","stop_lon":"10.209766000000"},"000751475800":{"stop_id":"000751475800","stop_name":"Trøjborgvej/Larsen-Ledets Gade (Aarhus)","stop_lat":"56.169691000000","stop_lon":"10.211837000000"},"000751476900":{"stop_id":"000751476900","stop_name":"J. P. Larsens Vej/Skovbakkevej (Aarhus)","stop_lat":"56.154608000000","stop_lon":"10.107971000000"},"000751477000":{"stop_id":"000751477000","stop_name":"Silkeborgvej/Røgelvej (Aarhus)","stop_lat":"56.152466000000","stop_lon":"10.127244000000"},"000751477200":{"stop_id":"000751477200","stop_name":"Hjortshøj. Sastrupvej (Aarhus)","stop_lat":"56.250517000000","stop_lon":"10.261034000000"},"000751477400":{"stop_id":"000751477400","stop_name":"Ormslevvej/Buggesgårdsvej (Aarhus)","stop_lat":"56.125758000000","stop_lon":"10.062821000000"},"000751478500":{"stop_id":"000751478500","stop_name":"Gl. Viborgvej/Kærsvinget. Mundelstrup (Aarhus)","stop_lat":"56.199907000000","stop_lon":"10.060438000000"},"000751478600":{"stop_id":"000751478600","stop_name":"Gl. Viborgvej v/11.1 km. Mundestrup (Aarhus)","stop_lat":"56.201668000000","stop_lon":"10.056167000000"},"000751478700":{"stop_id":"000751478700","stop_name":"Viborgvej/Sabrovej (Aarhus)","stop_lat":"56.205926000000","stop_lon":"10.042565000000"},"000751479000":{"stop_id":"000751479000","stop_name":"Vistoftvej/Astervej. Sabro (Aarhus)","stop_lat":"56.214697000000","stop_lon":"10.035983000000"},"000751479300":{"stop_id":"000751479300","stop_name":"Viborgvej/Vistoftvej. Sabro (Aarhus)","stop_lat":"56.207710000000","stop_lon":"10.036617000000"},"000751598900":{"stop_id":"000751598900","stop_name":"Grøndalsvej/Bøgeskov Høvej (Aarhus)","stop_lat":"56.121506000000","stop_lon":"10.135652000000"},"000733001300":{"stop_id":"000733001300","stop_name":"Hornslet v/Gl. Kro","stop_lat":"56.317130000000","stop_lon":"10.321789000000"},"000733001400":{"stop_id":"000733001400","stop_name":"Brogårdsvej/Brovej. Hornslet","stop_lat":"56.314834000000","stop_lon":"10.319705000000"},"000733100904":{"stop_id":"000733100904","stop_name":"Teglvangsvej ved Gallebæk","stop_lat":"56.327912000000","stop_lon":"10.300571000000"},"000733000202":{"stop_id":"000733000202","stop_name":"Rosenholmvej Alpevej","stop_lat":"56.320015000000","stop_lon":"10.323393000000"},"000733000300":{"stop_id":"000733000300","stop_name":"Rodskov","stop_lat":"56.300057000000","stop_lon":"10.364140000000"},"000733000301":{"stop_id":"000733000301","stop_name":"Landevejen Stenhusevej","stop_lat":"56.292406000000","stop_lon":"10.340665000000"},"000733000302":{"stop_id":"000733000302","stop_name":"Landevejen Pusthusvej","stop_lat":"56.294835000000","stop_lon":"10.349443000000"},"000733000500":{"stop_id":"000733000500","stop_name":"Hornbjergvej. Hornslet","stop_lat":"56.305324000000","stop_lon":"10.316678000000"},"000733000501":{"stop_id":"000733000501","stop_name":"Løgtenvej Elmevej","stop_lat":"56.310326000000","stop_lon":"10.318645000000"},"000733000700":{"stop_id":"000733000700","stop_name":"Birkevej (Hornslet)","stop_lat":"56.319469000000","stop_lon":"10.319849000000"},"000733000701":{"stop_id":"000733000701","stop_name":"Birkevej Tingvej","stop_lat":"56.319214000000","stop_lon":"10.315976000000"},"000733000100":{"stop_id":"000733000100","stop_name":"Hornslet rtb.","stop_lat":"56.321733000000","stop_lon":"10.301218000000"},"000733000102":{"stop_id":"000733000102","stop_name":"Tingvej Ågårdsvej","stop_lat":"56.321401000000","stop_lon":"10.304538000000"},"000733000103":{"stop_id":"000733000103","stop_name":"Tingvej Ellekærparken","stop_lat":"56.320690000000","stop_lon":"10.308896000000"},"000751454300":{"stop_id":"000751454300","stop_name":"Rødlundvej Nord (Aarhus)","stop_lat":"56.147279000000","stop_lon":"9.986814000000"},"000751454400":{"stop_id":"000751454400","stop_name":"Rødlundvej (Aarhus)","stop_lat":"56.145542000000","stop_lon":"9.987171000000"},"000751454500":{"stop_id":"000751454500","stop_name":"Stavtrup v. Søholm (Aarhus)","stop_lat":"56.141345000000","stop_lon":"10.116039000000"},"000751454600":{"stop_id":"000751454600","stop_name":"Havkærvej v. Havkær Lokalcenter (Aarhus)","stop_lat":"56.191390000000","stop_lon":"10.111400000000"},"000751454800":{"stop_id":"000751454800","stop_name":"Marselis Boulevard/Stadion Allé (Aarhus)","stop_lat":"56.140277000000","stop_lon":"10.194753000000"},"000751454900":{"stop_id":"000751454900","stop_name":"Silkeborgvej/Haslevej (Aarhus)","stop_lat":"56.155176000000","stop_lon":"10.165480000000"},"000751455100":{"stop_id":"000751455100","stop_name":"Harlev. Rødlundvej Syd (Aarhus)","stop_lat":"56.143742000000","stop_lon":"9.987544000000"},"000751455200":{"stop_id":"000751455200","stop_name":"Chr. Winthers Vej/Kingosvej (Aarhus)","stop_lat":"56.152835000000","stop_lon":"10.155363000000"},"000751455400":{"stop_id":"000751455400","stop_name":"Grenåvej/Ravnsøvej (Aarhus)","stop_lat":"56.201543000000","stop_lon":"10.246305000000"},"000751455500":{"stop_id":"000751455500","stop_name":"Egå Strandvej/Dagland v. Egå Butikstorv (Aarhus)","stop_lat":"56.206445000000","stop_lon":"10.273113000000"},"000751455600":{"stop_id":"000751455600","stop_name":"Egå Strandvej/Solvejen (Aarhus)","stop_lat":"56.206086000000","stop_lon":"10.280065000000"},"000751455700":{"stop_id":"000751455700","stop_name":"Egå Strandvej v. Egå Marina (Aarhus)","stop_lat":"56.210473000000","stop_lon":"10.285048000000"},"000751455800":{"stop_id":"000751455800","stop_name":"Egå Strandvej/Søtoften (Aarhus)","stop_lat":"56.213006000000","stop_lon":"10.288616000000"},"000751455900":{"stop_id":"000751455900","stop_name":"Skæring Strandvej/Kystparken (Aarhus)","stop_lat":"56.217886000000","stop_lon":"10.293682000000"},"000751456000":{"stop_id":"000751456000","stop_name":"Skæring Strandvej/Toftegårdsvej (Aarhus)","stop_lat":"56.220738000000","stop_lon":"10.297617000000"},"000751456100":{"stop_id":"000751456100","stop_name":"Skæring Strandvej v. Skæring Skole (Aarhus)","stop_lat":"56.225279000000","stop_lon":"10.303270000000"},"000751456200":{"stop_id":"000751456200","stop_name":"Strandvangsvej/Skabiosevej (Aarhus)","stop_lat":"56.230332000000","stop_lon":"10.320848000000"},"000751456300":{"stop_id":"000751456300","stop_name":"Strandvangsvej/Havlundsvej (Aarhus)","stop_lat":"56.231833000000","stop_lon":"10.326658000000"},"000751456400":{"stop_id":"000751456400","stop_name":"Skæring St./Sneppevej (Aarhus)","stop_lat":"56.235341000000","stop_lon":"10.329635000000"},"000751456500":{"stop_id":"000751456500","stop_name":"Åstrup Strandvej/Nålestien (Aarhus)","stop_lat":"56.239746000000","stop_lon":"10.331983000000"},"000751456600":{"stop_id":"000751456600","stop_name":"Åstrup Strandvej/Under Rønnene (Aarhus)","stop_lat":"56.242341000000","stop_lon":"10.333767000000"},"000751456700":{"stop_id":"000751456700","stop_name":"Åstrup Strandvej v. Kaløvig Lystbådehavn (Aarhus)","stop_lat":"56.245234000000","stop_lon":"10.334642000000"},"000751456800":{"stop_id":"000751456800","stop_name":"Studstrupvej/Ny Studstrupvej (Aarhus)","stop_lat":"56.255267000000","stop_lon":"10.333345000000"},"000751456900":{"stop_id":"000751456900","stop_name":"Studstrupvej/Præstekravevej (Aarhus)","stop_lat":"56.257617000000","stop_lon":"10.335444000000"},"000751457000":{"stop_id":"000751457000","stop_name":"Studstrupvej/Sanatorievej (Aarhus)","stop_lat":"56.260466000000","stop_lon":"10.335302000000"},"000751457100":{"stop_id":"000751457100","stop_name":"Skæring Havvej/Lavendelvej (Aarhus)","stop_lat":"56.228252000000","stop_lon":"10.305161000000"},"000751457200":{"stop_id":"000751457200","stop_name":"Skæring Havvej v. Skæring Lokalcenter (Aarhus)","stop_lat":"56.229398000000","stop_lon":"10.302055000000"},"000751457300":{"stop_id":"000751457300","stop_name":"Skæring. Skæring Hedevej (Aarhus)","stop_lat":"56.231244000000","stop_lon":"10.297455000000"},"000751457400":{"stop_id":"000751457400","stop_name":"Skæring Hedevej/Skæring Parkvej (Aarhus)","stop_lat":"56.233828000000","stop_lon":"10.302060000000"},"000751457500":{"stop_id":"000751457500","stop_name":"Skæring Hedevej/Skæring Kirkevej (Aarhus)","stop_lat":"56.233526000000","stop_lon":"10.305212000000"},"000751457600":{"stop_id":"000751457600","stop_name":"Skæring Hedevej/Busvejen (Aarhus)","stop_lat":"56.233390000000","stop_lon":"10.312919000000"},"000751457700":{"stop_id":"000751457700","stop_name":"Strandvangsvej/Havbakkevej (Aarhus)","stop_lat":"56.229757000000","stop_lon":"10.314053000000"},"000751457800":{"stop_id":"000751457800","stop_name":"Skæring Hedevej/Skæring Sandager (Aarhus)","stop_lat":"56.233452000000","stop_lon":"10.309662000000"},"000751458000":{"stop_id":"000751458000","stop_name":"Studstrup (Aarhus)","stop_lat":"56.257996000000","stop_lon":"10.340252000000"},"000751458100":{"stop_id":"000751458100","stop_name":"Mejlbyvej/Kringelvej v. Egå Gymnasium (Aarhus)","stop_lat":"56.210183000000","stop_lon":"10.269657000000"},"000751458200":{"stop_id":"000751458200","stop_name":"Mejlbyvej/Eghøjvej v. Egå Kirke (Aarhus)","stop_lat":"56.216004000000","stop_lon":"10.266286000000"},"000751458300":{"stop_id":"000751458300","stop_name":"Mejlbyvej/Nordvangen. Egå (Aarhus)","stop_lat":"56.218129000000","stop_lon":"10.266711000000"},"000751458400":{"stop_id":"000751458400","stop_name":"Mejlbyvej/Egå Møllevej (Aarhus)","stop_lat":"56.229224000000","stop_lon":"10.266964000000"},"000751458500":{"stop_id":"000751458500","stop_name":"Hjortshøj Stationsvej v. Hjortshøj Lokalcenter (Aa","stop_lat":"56.242634000000","stop_lon":"10.263066000000"},"000751458600":{"stop_id":"000751458600","stop_name":"Hjortshøj Station (Aarhus)","stop_lat":"56.244904000000","stop_lon":"10.268692000000"},"000751458700":{"stop_id":"000751458700","stop_name":"Virupvej/Hundkærvej (Aarhus)","stop_lat":"56.246893000000","stop_lon":"10.267418000000"},"000751458800":{"stop_id":"000751458800","stop_name":"Hjortshøj Møllevej (Aarhus)","stop_lat":"56.249990000000","stop_lon":"10.266891000000"},"000751458900":{"stop_id":"000751458900","stop_name":"Smedebakken v. Gl. Hjortshøj Kirke (Aarhus)","stop_lat":"56.252566000000","stop_lon":"10.264555000000"},"000751459000":{"stop_id":"000751459000","stop_name":"Hesselballe (Aarhus)","stop_lat":"56.263993000000","stop_lon":"10.267386000000"},"000751459100":{"stop_id":"000751459100","stop_name":"Bendstrup. Mejlbyvej/Clemensvej (Aarhus)","stop_lat":"56.273675000000","stop_lon":"10.238508000000"},"000751459200":{"stop_id":"000751459200","stop_name":"Grimsbrovej/Esbenhus (Aarhus)","stop_lat":"56.276819000000","stop_lon":"10.234136000000"},"000751459300":{"stop_id":"000751459300","stop_name":"Mejlby. Mejlbyvej/Gl. Kaløvej (Aarhus)","stop_lat":"56.300778000000","stop_lon":"10.214561000000"},"000751459400":{"stop_id":"000751459400","stop_name":"Åkrogen (Aarhus)","stop_lat":"56.203013000000","stop_lon":"10.281784000000"},"000751459500":{"stop_id":"000751459500","stop_name":"Åkrogs Strandvej/Mågevej (Aarhus)","stop_lat":"56.202304000000","stop_lon":"10.276457000000"},"000751459600":{"stop_id":"000751459600","stop_name":"Nordre Strandvej/Sejrs Allé (Aarhus)","stop_lat":"56.201619000000","stop_lon":"10.262669000000"},"000751459700":{"stop_id":"000751459700","stop_name":"Nordre Strandvej/Strandbyvej (Aarhus)","stop_lat":"56.200304000000","stop_lon":"10.257741000000"},"000751459800":{"stop_id":"000751459800","stop_name":"Nordre Strandvej/Klintevej (Aarhus)","stop_lat":"56.198216000000","stop_lon":"10.253611000000"},"000751459900":{"stop_id":"000751459900","stop_name":"Nordre Strandvej/Themsvej (Aarhus)","stop_lat":"56.196172000000","stop_lon":"10.249580000000"},"000751460000":{"stop_id":"000751460000","stop_name":"Vestre Strandalle/Hørgårdsvej (Aarhus)","stop_lat":"56.194845000000","stop_lon":"10.238561000000"},"000751460100":{"stop_id":"000751460100","stop_name":"Vestre Strandalle/Ellebjergvej (Aarhus)","stop_lat":"56.193852000000","stop_lon":"10.234549000000"},"000751460200":{"stop_id":"000751460200","stop_name":"Skolevangs Allé v. Risskov Skole (Aarhus)","stop_lat":"56.191817000000","stop_lon":"10.228666000000"},"000751445100":{"stop_id":"000751445100","stop_name":"Skanderborgvej/Bygholms Allé (Aarhus)","stop_lat":"56.134848000000","stop_lon":"10.172427000000"},"000751445200":{"stop_id":"000751445200","stop_name":"Skanderborgvej/Brorsonsvej (Aarhus)","stop_lat":"56.132991000000","stop_lon":"10.169282000000"},"000751445300":{"stop_id":"000751445300","stop_name":"Skanderborgvej/Birkedalsvej v. Viby Bibliotek (Aar","stop_lat":"56.130900000000","stop_lon":"10.166145000000"},"000751445400":{"stop_id":"000751445400","stop_name":"Ormslevsvej/Myrholmsvej v. Aarhus Købmandsskole","stop_lat":"56.129896000000","stop_lon":"10.154386000000"},"000751445500":{"stop_id":"000751445500","stop_name":"Ormslevvej/Stensagervej (Aarhus)","stop_lat":"56.129173000000","stop_lon":"10.149087000000"},"000751445600":{"stop_id":"000751445600","stop_name":"Ormslevvej/Hømosevej (Aarhus)","stop_lat":"56.128607000000","stop_lon":"10.143246000000"},"000751445700":{"stop_id":"000751445700","stop_name":"Jarlmindesvej/Højvangsvej (Aarhus)","stop_lat":"56.129113000000","stop_lon":"10.125241000000"},"000751445800":{"stop_id":"000751445800","stop_name":"Jarlmindesvej/Rugbjergvej (Aarhus)","stop_lat":"56.131460000000","stop_lon":"10.125069000000"},"000751445900":{"stop_id":"000751445900","stop_name":"Jarlmindesvej/Tornhøjvej (Aarhus)","stop_lat":"56.134823000000","stop_lon":"10.121900000000"},"000751446000":{"stop_id":"000751446000","stop_name":"Jarlmindesvej/Klokkeskovvej (Aarhus)","stop_lat":"56.135988000000","stop_lon":"10.118265000000"},"000751446100":{"stop_id":"000751446100","stop_name":"Stavtrup Station (Aarhus)","stop_lat":"56.138506000000","stop_lon":"10.118966000000"},"000751446200":{"stop_id":"000751446200","stop_name":"Ormslevvej/Nordbyvej (Aarhus)","stop_lat":"56.130315000000","stop_lon":"10.157648000000"},"000751446600":{"stop_id":"000751446600","stop_name":"Sigridsvej/Emmasvej (Aarhus)","stop_lat":"56.158643000000","stop_lon":"10.129792000000"},"000751446700":{"stop_id":"000751446700","stop_name":"Sigridsvej/Astridsvej (Aarhus)","stop_lat":"56.156262000000","stop_lon":"10.130736000000"},"000751446900":{"stop_id":"000751446900","stop_name":"Stavtrup v. Byvænget (Aarhus)","stop_lat":"56.128607000000","stop_lon":"10.115654000000"},"000751447000":{"stop_id":"000751447000","stop_name":"Søholmvej/Bispevej (Aarhus)","stop_lat":"56.136861000000","stop_lon":"10.117116000000"},"000751447100":{"stop_id":"000751447100","stop_name":"Fastrupvej/Lykkegårdsvej. Solbjerg (Aarhus)","stop_lat":"56.040149000000","stop_lon":"10.067562000000"},"000751447200":{"stop_id":"000751447200","stop_name":"Fastrupvej/Møllegårdsparken. Solbjerg (Aarhus)","stop_lat":"56.039699000000","stop_lon":"10.070695000000"},"000751447300":{"stop_id":"000751447300","stop_name":"Fastrupvej/Vestervangsparken. Solbjerg (Aarhus)","stop_lat":"56.038635000000","stop_lon":"10.075240000000"},"000751447400":{"stop_id":"000751447400","stop_name":"Fastrupvej/Møddebrovej. Solbjerg (Aarhus)","stop_lat":"56.037527000000","stop_lon":"10.078660000000"},"000751447600":{"stop_id":"000751447600","stop_name":"Kærgårdsvej/Dalmosevej. Solbjerg (Aarhus)","stop_lat":"56.038337000000","stop_lon":"10.088779000000"},"000751447700":{"stop_id":"000751447700","stop_name":"Kærgårdsparken v. Solbjerg Skole (Aarhus)","stop_lat":"56.040461000000","stop_lon":"10.087362000000"},"000751447800":{"stop_id":"000751447800","stop_name":"Egevangen. Solbjerg (Aarhus)","stop_lat":"56.043292000000","stop_lon":"10.090331000000"},"000751447900":{"stop_id":"000751447900","stop_name":"Solbjerg Hovedgade/Solbjerg Hedevej (Aarhus)","stop_lat":"56.045440000000","stop_lon":"10.082172000000"},"000751448000":{"stop_id":"000751448000","stop_name":"Gammel Horsensvej v. Tiset Kirke (Aarhus)","stop_lat":"56.063050000000","stop_lon":"10.093539000000"},"000751448100":{"stop_id":"000751448100","stop_name":"Gammel Horsensvej/Skovgårdsvej (Aarhus)","stop_lat":"56.067510000000","stop_lon":"10.098163000000"},"000751448200":{"stop_id":"000751448200","stop_name":"Landevejen v. Tranbjerg Kirke (Aarhus)","stop_lat":"56.091440000000","stop_lon":"10.132822000000"},"000751448300":{"stop_id":"000751448300","stop_name":"Egevangens Busvej. Solbjerg (Aarhus)","stop_lat":"56.040892000000","stop_lon":"10.090424000000"},"000751448400":{"stop_id":"000751448400","stop_name":"Solbjerg Hedevej (Aarhus)","stop_lat":"56.044922000000","stop_lon":"10.086910000000"},"000751448600":{"stop_id":"000751448600","stop_name":"Ketting Parkvej/Kettingvej. Harlev (Aarhus)","stop_lat":"56.136794000000","stop_lon":"9.995637000000"},"000751448700":{"stop_id":"000751448700","stop_name":"Ringvej Syd/Søndervangs Allé (Aarhus)","stop_lat":"56.114168000000","stop_lon":"10.152821000000"},"000751448800":{"stop_id":"000751448800","stop_name":"Ketting Parkvej. Harlev (Aarhus)","stop_lat":"56.140639000000","stop_lon":"9.992421000000"},"000751448900":{"stop_id":"000751448900","stop_name":"Silkeborgvej/Årslev Møllevej v. Tre Ege (Aarhus)","stop_lat":"56.152947000000","stop_lon":"10.088669000000"},"000751449000":{"stop_id":"000751449000","stop_name":"Silkeborgvej v. Årslev Skov (Aarhus)","stop_lat":"56.152590000000","stop_lon":"10.083218000000"},"000751449100":{"stop_id":"000751449100","stop_name":"Rødlundvej/Næshøjvej. Harlev (Aarhus)","stop_lat":"56.142810000000","stop_lon":"9.990594000000"},"000751449200":{"stop_id":"000751449200","stop_name":"Tåstrupvej/Ketting Parkvej. Harlev (Aarhus)","stop_lat":"56.136208000000","stop_lon":"9.998148000000"},"000751449300":{"stop_id":"000751449300","stop_name":"Næshøjvej v. Lokalcentret Næshøj (Aarhus)","stop_lat":"56.143747000000","stop_lon":"9.991423000000"},"000751449400":{"stop_id":"000751449400","stop_name":"Næshøjvej v. Næshøjhallen (Aarhus)","stop_lat":"56.144654000000","stop_lon":"9.997079000000"},"000751449500":{"stop_id":"000751449500","stop_name":"Gl. Stillingvej v. Næshøjskolen. Harlev (Aarhus)","stop_lat":"56.145860000000","stop_lon":"10.000072000000"},"000751449600":{"stop_id":"000751449600","stop_name":"Gl. Stillingvej/Lærkesvinget. Harlev (Aarhus)","stop_lat":"56.147953000000","stop_lon":"10.001285000000"},"000751449700":{"stop_id":"000751449700","stop_name":"Lærkesvinget. Harlev (Aarhus)","stop_lat":"56.149400000000","stop_lon":"9.999069000000"},"000751449800":{"stop_id":"000751449800","stop_name":"Lilleringvej/Spiræavej. Harlev (Aarhus)","stop_lat":"56.150319000000","stop_lon":"9.997580000000"},"000751450000":{"stop_id":"000751450000","stop_name":"Skibby (Aarhus)","stop_lat":"56.136056000000","stop_lon":"10.039435000000"},"000751450100":{"stop_id":"000751450100","stop_name":"Gl. Harlev (Aarhus)","stop_lat":"56.133222000000","stop_lon":"10.010621000000"},"000751450500":{"stop_id":"000751450500","stop_name":"Sønderskovvej/Lægårdsvej. Lystrup (Aarhus)","stop_lat":"56.226293000000","stop_lon":"10.236930000000"},"000751450600":{"stop_id":"000751450600","stop_name":"Sønderskovvej/Lystruplund (Aarhus)","stop_lat":"56.230650000000","stop_lon":"10.236958000000"},"000751450800":{"stop_id":"000751450800","stop_name":"Per Kjals Vej/Elstedvej. Lystrup (Aarhus)","stop_lat":"56.236618000000","stop_lon":"10.219677000000"},"000751450900":{"stop_id":"000751450900","stop_name":"Elstedvej/Høvej. Lystrup (Aarhus)","stop_lat":"56.233431000000","stop_lon":"10.208396000000"},"000751451000":{"stop_id":"000751451000","stop_name":"Høvej/Stokbrovej. Elev (Aarhus)","stop_lat":"56.237100000000","stop_lon":"10.204333000000"},"000751451100":{"stop_id":"000751451100","stop_name":"Elev. Høvej (Aarhus)","stop_lat":"56.240075000000","stop_lon":"10.200634000000"},"000751451200":{"stop_id":"000751451200","stop_name":"Hovmuren. Elev (Aarhus)","stop_lat":"56.242110000000","stop_lon":"10.199262000000"},"000751451300":{"stop_id":"000751451300","stop_name":"Todbjerg. Hæstvej (Aarhus)","stop_lat":"56.267404000000","stop_lon":"10.206609000000"},"000751451400":{"stop_id":"000751451400","stop_name":"Bøgglidsvej/Grimsbrovej (Aarhus)","stop_lat":"56.269520000000","stop_lon":"10.210712000000"},"000751451500":{"stop_id":"000751451500","stop_name":"Hårup. Risvangsvej (Aarhus)","stop_lat":"56.282638000000","stop_lon":"10.216247000000"},"000751451600":{"stop_id":"000751451600","stop_name":"Mejlbyvej/Spartavej (Aarhus)","stop_lat":"56.285680000000","stop_lon":"10.217588000000"},"000751451700":{"stop_id":"000751451700","stop_name":"Mejlbyvej/Delfivej v. Hårup Skole (Aarhus)","stop_lat":"56.288578000000","stop_lon":"10.218019000000"},"000751452400":{"stop_id":"000751452400","stop_name":"Fredensborgparken (Aarhus)","stop_lat":"56.128950000000","stop_lon":"10.104498000000"},"000751452500":{"stop_id":"000751452500","stop_name":"Ormslevvej v. Ormslev Kirke (Aarhus)","stop_lat":"56.124952000000","stop_lon":"10.059372000000"},"000751452600":{"stop_id":"000751452600","stop_name":"Åbo (Aarhus)","stop_lat":"56.123323000000","stop_lon":"10.043756000000"},"000751452700":{"stop_id":"000751452700","stop_name":"Tåstrupvej/Tarskovvænget (Aarhus)","stop_lat":"56.125060000000","stop_lon":"9.991135000000"},"000751452800":{"stop_id":"000751452800","stop_name":"Ormslev Station (Aarhus)","stop_lat":"56.130300000000","stop_lon":"10.041146000000"},"000751453100":{"stop_id":"000751453100","stop_name":"Kettingvej/Højlundvej. Harlev (Aarhus)","stop_lat":"56.138013000000","stop_lon":"9.995974000000"},"000751453200":{"stop_id":"000751453200","stop_name":"Vestervej/Nyvangsvej. Harlev (Aarhus)","stop_lat":"56.140552000000","stop_lon":"9.995380000000"},"000751453300":{"stop_id":"000751453300","stop_name":"Ormslevvej/Råhøjparken (Aarhus)","stop_lat":"56.128783000000","stop_lon":"10.110125000000"},"000751453400":{"stop_id":"000751453400","stop_name":"Lilleringvej/Araliavej (Aarhus)","stop_lat":"56.149372000000","stop_lon":"9.994674000000"},"000751453500":{"stop_id":"000751453500","stop_name":"Tåstrupvej/Tåstrupgård (Aarhus)","stop_lat":"56.126690000000","stop_lon":"9.989536000000"},"000751453600":{"stop_id":"000751453600","stop_name":"Tåstrupvej/Tåstrup Byvej (Aarhus)","stop_lat":"56.128694000000","stop_lon":"9.989475000000"},"000751445000":{"stop_id":"000751445000","stop_name":"Skanderborgvej/Christian X's Vej (Aarhus)","stop_lat":"56.136825000000","stop_lon":"10.176124000000"},"000751435200":{"stop_id":"000751435200","stop_name":"Viborgvej/True Møllevej (Aarhus)","stop_lat":"56.185717000000","stop_lon":"10.094689000000"},"000751436100":{"stop_id":"000751436100","stop_name":"Søndervangs Allé/Matildelundsvej v. Søndervang (Aa","stop_lat":"56.111390000000","stop_lon":"10.150117000000"},"000751436200":{"stop_id":"000751436200","stop_name":"Tilst Skolevej v. Tilst Skole (Aarhus)","stop_lat":"56.190154000000","stop_lon":"10.111961000000"},"000751436800":{"stop_id":"000751436800","stop_name":"Nordlandsvej/Krogagre (Aarhus)","stop_lat":"56.208559000000","stop_lon":"10.212112000000"},"000751437300":{"stop_id":"000751437300","stop_name":"Langelandsgade v. Skt. Marcus Kirkeplads (Aarhus)","stop_lat":"56.160640000000","stop_lon":"10.196352000000"},"000751437400":{"stop_id":"000751437400","stop_name":"Sandkås Busvej v. Firmasport (Aarhus)","stop_lat":"56.180108000000","stop_lon":"10.174226000000"},"000751437700":{"stop_id":"000751437700","stop_name":"Herredsvej/Trillegårdsvej (Aarhus)","stop_lat":"56.179780000000","stop_lon":"10.168126000000"},"000751437800":{"stop_id":"000751437800","stop_name":"Herredsvej/Snogebæksvej (Aarhus)","stop_lat":"56.177192000000","stop_lon":"10.167113000000"},"000751437900":{"stop_id":"000751437900","stop_name":"Fjældevænget (Aarhus)","stop_lat":"56.177431000000","stop_lon":"10.163737000000"},"000751438000":{"stop_id":"000751438000","stop_name":"Hasle. Haslegårdsvej/Fjældevænget (Aarhus)","stop_lat":"56.178803000000","stop_lon":"10.157303000000"},"000751438100":{"stop_id":"000751438100","stop_name":"Haslegårdsvej/Novembervej (Århus)","stop_lat":"56.176192000000","stop_lon":"10.156902000000"},"000751438300":{"stop_id":"000751438300","stop_name":"Viborgvej/Højkolvej (Aarhus)","stop_lat":"56.164998000000","stop_lon":"10.169094000000"},"000751438400":{"stop_id":"000751438400","stop_name":"Viborgvej/Frydenlunds Allé v. Frydenlund Centret (","stop_lat":"56.163513000000","stop_lon":"10.174106000000"},"000751438600":{"stop_id":"000751438600","stop_name":"Dokk1. Europaplads (Aarhus)","stop_lat":"56.153984000000","stop_lon":"10.212759000000"},"000751438700":{"stop_id":"000751438700","stop_name":"AUH Skejby, indg. B,C,D (Aarhus)","stop_lat":"56.187187000000","stop_lon":"10.171541000000"},"000751438800":{"stop_id":"000751438800","stop_name":"Brendstrupgårdsvej/Hedager (Aarhus)","stop_lat":"56.191924000000","stop_lon":"10.182676000000"},"000751439000":{"stop_id":"000751439000","stop_name":"Agro Food Park (Aarhus)","stop_lat":"56.199964000000","stop_lon":"10.157295000000"},"000751439100":{"stop_id":"000751439100","stop_name":"Randersvej v. Motorvejen (Aarhus)","stop_lat":"56.211230000000","stop_lon":"10.172742000000"},"000751439200":{"stop_id":"000751439200","stop_name":"Ølstedvej/Randersvej (Aarhus)","stop_lat":"56.224456000000","stop_lon":"10.161308000000"},"000751439300":{"stop_id":"000751439300","stop_name":"Ølsted (Aarhus)","stop_lat":"56.232857000000","stop_lon":"10.140106000000"},"000751439400":{"stop_id":"000751439400","stop_name":"Holmkær/Vestermøllevej. Trige (Aarhus)","stop_lat":"56.247831000000","stop_lon":"10.135677000000"},"000751439500":{"stop_id":"000751439500","stop_name":"Vester Møllevej/Holmkærvej. Trige (Aarhus)","stop_lat":"56.251467000000","stop_lon":"10.139916000000"},"000751439700":{"stop_id":"000751439700","stop_name":"Smedebroen. Trige (Aarhus)","stop_lat":"56.252723000000","stop_lon":"10.144990000000"},"000751440100":{"stop_id":"000751440100","stop_name":"Lergravvej/Hjulgårdsvej. Trige (Aarhus)","stop_lat":"56.254708000000","stop_lon":"10.147067000000"},"000751440300":{"stop_id":"000751440300","stop_name":"Frydenlund/Fuglebakkevej (Aarhus)","stop_lat":"56.171816000000","stop_lon":"10.172153000000"},"000751440400":{"stop_id":"000751440400","stop_name":"Fuglebakkevej/Østrevej (Aarhus)","stop_lat":"56.168714000000","stop_lon":"10.172444000000"},"000751440500":{"stop_id":"000751440500","stop_name":"Fuglebakkevej/Frydenlunds Allé (Aarhus)","stop_lat":"56.167230000000","stop_lon":"10.175427000000"},"000751440600":{"stop_id":"000751440600","stop_name":"Fuglebakkevej/Fasanvej (Aarhus)","stop_lat":"56.166533000000","stop_lon":"10.179673000000"},"000751440700":{"stop_id":"000751440700","stop_name":"Fuglebakkevej v. Møllevangskolen (Aarhus)","stop_lat":"56.165600000000","stop_lon":"10.185169000000"},"000751440800":{"stop_id":"000751440800","stop_name":"Ny Munkegade/Fynsgade (Aarhus)","stop_lat":"56.164144000000","stop_lon":"10.201082000000"},"000751440900":{"stop_id":"000751440900","stop_name":"Ny Munkegade v. Samsøgade Skole (Aarhus)","stop_lat":"56.162692000000","stop_lon":"10.202535000000"},"000751441000":{"stop_id":"000751441000","stop_name":"Samsøgade/Grønnegade v. Klostervangen (Aarhus)","stop_lat":"56.161447000000","stop_lon":"10.199323000000"},"000751441100":{"stop_id":"000751441100","stop_name":"Grønnegade/Nørre Allé (Aarhus)","stop_lat":"56.159440000000","stop_lon":"10.201483000000"},"000751441200":{"stop_id":"000751441200","stop_name":"Skt. Pauls Kirkeplads (Aarhus)","stop_lat":"56.145848000000","stop_lon":"10.203940000000"},"000751441300":{"stop_id":"000751441300","stop_name":"Odensegade v. Ingerslevs Plads (Aarhus)","stop_lat":"56.145066000000","stop_lon":"10.199425000000"},"000751441600":{"stop_id":"000751441600","stop_name":"Stadion Allé v. Friheden (Aarhus)","stop_lat":"56.137341000000","stop_lon":"10.195403000000"},"000751442000":{"stop_id":"000751442000","stop_name":"Vilhelm Becks Vej/Kaj Munks Vej (Aarhus)","stop_lat":"56.130447000000","stop_lon":"10.174980000000"},"000751442200":{"stop_id":"000751442200","stop_name":"Holme Møllevej/Christian X's Vej (Aarhus)","stop_lat":"56.124494000000","stop_lon":"10.171742000000"},"000751442300":{"stop_id":"000751442300","stop_name":"Holme Møllevej/Jyllands Allé (Aarhus)","stop_lat":"56.121895000000","stop_lon":"10.171969000000"},"000751442400":{"stop_id":"000751442400","stop_name":"Holme Byvej/Hjulbjergvej (Aarhus)","stop_lat":"56.115530000000","stop_lon":"10.174236000000"},"000751442500":{"stop_id":"000751442500","stop_name":"Rosenvang Allé/Vestavej (Aarhus)","stop_lat":"56.123756000000","stop_lon":"10.186021000000"},"000751442800":{"stop_id":"000751442800","stop_name":"Saralyst Allé/Tunnelen (Aarhus)","stop_lat":"56.111926000000","stop_lon":"10.189259000000"},"000751442900":{"stop_id":"000751442900","stop_name":"Bushøjvænget/Saralyst Allé (Aarhus)","stop_lat":"56.108703000000","stop_lon":"10.188067000000"},"000751443000":{"stop_id":"000751443000","stop_name":"Bushøjvænget/Roukær Allé (Aarhus)","stop_lat":"56.107788000000","stop_lon":"10.190756000000"},"000751443100":{"stop_id":"000751443100","stop_name":"Bushøjvænget v. Lokalcenter Skåde (Aarhus)","stop_lat":"56.105983000000","stop_lon":"10.197164000000"},"000751443200":{"stop_id":"000751443200","stop_name":"Stenvej/Stennehøj Allé (Aarhus)","stop_lat":"56.107258000000","stop_lon":"10.202815000000"},"000751443300":{"stop_id":"000751443300","stop_name":"Stenvej v. Skådeparken (Aarhus)","stop_lat":"56.107617000000","stop_lon":"10.206541000000"},"000751443400":{"stop_id":"000751443400","stop_name":"Rosenvangs Allé/Kaj Munks Vej v. Rosenvang (Aarhus","stop_lat":"56.129487000000","stop_lon":"10.182433000000"},"000751443500":{"stop_id":"000751443500","stop_name":"Bushøjvænget/Nødkær Allé (Aarhus)","stop_lat":"56.106648000000","stop_lon":"10.194371000000"},"000751443600":{"stop_id":"000751443600","stop_name":"Emiliedalen (Århus)","stop_lat":"56.107849000000","stop_lon":"10.211292000000"},"000751443700":{"stop_id":"000751443700","stop_name":"Skåde. Emiliedalsvej (Aarhus)","stop_lat":"56.109059000000","stop_lon":"10.214305000000"},"000751443900":{"stop_id":"000751443900","stop_name":"Silkeborgvej/Jeppe Åkjærs Vej (Aarhus)","stop_lat":"56.154024000000","stop_lon":"10.149362000000"},"000751444000":{"stop_id":"000751444000","stop_name":"Gl. Åby (Århus)","stop_lat":"56.146650000000","stop_lon":"10.158590000000"},"000751444100":{"stop_id":"000751444100","stop_name":"Søren Frichs Vej/Tousvej (Aarhus)","stop_lat":"56.147822000000","stop_lon":"10.155358000000"},"000751444200":{"stop_id":"000751444200","stop_name":"Vibyvej/Tousparken (Aarhus)","stop_lat":"56.149249000000","stop_lon":"10.155529000000"},"000751444300":{"stop_id":"000751444300","stop_name":"Chr. Winthers Vej/Vibyvej (Aarhus)","stop_lat":"56.150255000000","stop_lon":"10.158409000000"},"000751444400":{"stop_id":"000751444400","stop_name":"Chr. Winthers Vej/I. P. Jacobsens Vej (Aarhus)","stop_lat":"56.151945000000","stop_lon":"10.156383000000"},"000751444500":{"stop_id":"000751444500","stop_name":"Silkeborgvej v. Åbyhøj Torv (Aarhus)","stop_lat":"56.155427000000","stop_lon":"10.169335000000"},"000751444600":{"stop_id":"000751444600","stop_name":"Silkeborgvej/Helgesvej (Aarhus)","stop_lat":"56.155555000000","stop_lon":"10.170997000000"},"000751444700":{"stop_id":"000751444700","stop_name":"Silkeborgvej/Birkeparken (Aarhus)","stop_lat":"56.155895000000","stop_lon":"10.175902000000"},"000751444800":{"stop_id":"000751444800","stop_name":"Dollerupvej v. Aarhus Tech","stop_lat":"56.156401000000","stop_lon":"10.186801000000"},"000751444900":{"stop_id":"000751444900","stop_name":"Skanderborgvej/Kongsvang (Aarhus)","stop_lat":"56.137999000000","stop_lon":"10.178397000000"},"000751435100":{"stop_id":"000751435100","stop_name":"Havkærvej/Ertebjerg (Aarhus)","stop_lat":"56.187173000000","stop_lon":"10.120736000000"},"000751460300":{"stop_id":"000751460300","stop_name":"Skovagervej/Højtoftevej (Aarhus)","stop_lat":"56.189057000000","stop_lon":"10.227949000000"},"000751460400":{"stop_id":"000751460400","stop_name":"Asylvej/Vestre Skovvej (Aarhus)","stop_lat":"56.185284000000","stop_lon":"10.225154000000"},"000751460500":{"stop_id":"000751460500","stop_name":"Grenåvej/Risvang Allé (Aarhus)","stop_lat":"56.180987000000","stop_lon":"10.218041000000"},"000751460700":{"stop_id":"000751460700","stop_name":"Skovvejen/Østbanetorvet (Aarhus)","stop_lat":"56.163547000000","stop_lon":"10.215283000000"},"000751460800":{"stop_id":"000751460800","stop_name":"Spanien/Værkmestergade (Aarhus)","stop_lat":"56.150540000000","stop_lon":"10.210236000000"},"000751460900":{"stop_id":"000751460900","stop_name":"Strandvejen/Svendborgvej (Aarhus)","stop_lat":"56.145128000000","stop_lon":"10.208746000000"},"000751461000":{"stop_id":"000751461000","stop_name":"Oddervej/Mindeparken (Aarhus)","stop_lat":"56.128396000000","stop_lon":"10.211503000000"},"000751461100":{"stop_id":"000751461100","stop_name":"Oddervej/Kongevejen (Aarhus)","stop_lat":"56.125010000000","stop_lon":"10.208662000000"},"000751461200":{"stop_id":"000751461200","stop_name":"Oddervej/Hestehavevej. Højbjerg (Aarhus)","stop_lat":"56.120326000000","stop_lon":"10.207100000000"},"000751461300":{"stop_id":"000751461300","stop_name":"Grumstolsvej/Højmarkvej (Aarhus)","stop_lat":"56.115526000000","stop_lon":"10.212755000000"},"000751461400":{"stop_id":"000751461400","stop_name":"Grumstolsvej/Jagtvej (Aarhus)","stop_lat":"56.114895000000","stop_lon":"10.216644000000"},"000751461500":{"stop_id":"000751461500","stop_name":"Grumstolsvej/Bekkasinvej (Aarhus)","stop_lat":"56.111809000000","stop_lon":"10.222481000000"},"000751461600":{"stop_id":"000751461600","stop_name":"Hørhavevej/Ildervej (Aarhus)","stop_lat":"56.110530000000","stop_lon":"10.222762000000"},"000751461700":{"stop_id":"000751461700","stop_name":"Hørhavevej/Elsdyrvej (Aarhus)","stop_lat":"56.109540000000","stop_lon":"10.217472000000"},"000751461800":{"stop_id":"000751461800","stop_name":"Emiliedalsvej (Aarhus)","stop_lat":"56.108528000000","stop_lon":"10.214352000000"},"000751461900":{"stop_id":"000751461900","stop_name":"Ny Moesgårdvej/Broen (Aarhus)","stop_lat":"56.104811000000","stop_lon":"10.215875000000"},"000751462000":{"stop_id":"000751462000","stop_name":"Ny Mosegårdvej/Skåde Skovvej v. Handelsfagskolen (","stop_lat":"56.097611000000","stop_lon":"10.217095000000"},"000751462100":{"stop_id":"000751462100","stop_name":"Ny Mosegårdvej v. Golfbanen (Aarhus)","stop_lat":"56.093545000000","stop_lon":"10.219346000000"},"000751462200":{"stop_id":"000751462200","stop_name":"Skovvejen/Langelinieparken (Aarhus)","stop_lat":"56.166277000000","stop_lon":"10.218155000000"},"000751462300":{"stop_id":"000751462300","stop_name":"Nordre Strandvej/Fortevej (Aarhus)","stop_lat":"56.192207000000","stop_lon":"10.241780000000"},"000751462400":{"stop_id":"000751462400","stop_name":"Rolighedsvej/Skolevangs Allé (Aarhus)","stop_lat":"56.189106000000","stop_lon":"10.238360000000"},"000751462500":{"stop_id":"000751462500","stop_name":"Stationsgade (Aarhus)","stop_lat":"56.183865000000","stop_lon":"10.235936000000"},"000751462600":{"stop_id":"000751462600","stop_name":"Moesgård Museum (Aarhus)","stop_lat":"56.086334000000","stop_lon":"10.222574000000"},"000751462700":{"stop_id":"000751462700","stop_name":"Vejlby Nord. Stenagervej/Jellebakken (Aarhus)","stop_lat":"56.202458000000","stop_lon":"10.213031000000"},"000751462800":{"stop_id":"000751462800","stop_name":"Stenagervej/Flintebakken (Aarhus)","stop_lat":"56.205961000000","stop_lon":"10.211272000000"},"000751463000":{"stop_id":"000751463000","stop_name":"Nordlandsvej/Enemærket (Aarhus)","stop_lat":"56.207817000000","stop_lon":"10.218053000000"},"000751463100":{"stop_id":"000751463100","stop_name":"Nordlandsvej/Viengevej (Aarhus)","stop_lat":"56.206156000000","stop_lon":"10.224304000000"},"000751463200":{"stop_id":"000751463200","stop_name":"Nordlandsvej/Torsøvej (Aarhus)","stop_lat":"56.204100000000","stop_lon":"10.225996000000"},"000751463300":{"stop_id":"000751463300","stop_name":"Nordlandsvej/Stålhøjen (Aarhus)","stop_lat":"56.200331000000","stop_lon":"10.225521000000"},"000751463400":{"stop_id":"000751463400","stop_name":"Nordlandsvej/Jættehøjen (Aarhus)","stop_lat":"56.198537000000","stop_lon":"10.220628000000"},"000751463500":{"stop_id":"000751463500","stop_name":"Vejlby Ringvej/Frijsenborgvej v. Børglum Kollegiet","stop_lat":"56.187795000000","stop_lon":"10.214744000000"},"000751463600":{"stop_id":"000751463600","stop_name":"Vejlby Ringvej/Bryggervej (Aarhus)","stop_lat":"56.185787000000","stop_lon":"10.208735000000"},"000751463700":{"stop_id":"000751463700","stop_name":"Risvang (Aarhus)","stop_lat":"56.183140000000","stop_lon":"10.208330000000"},"000751463800":{"stop_id":"000751463800","stop_name":"Bethesdavej/Nordvestpassagen (Aarhus)","stop_lat":"56.180778000000","stop_lon":"10.209141000000"},"000751463900":{"stop_id":"000751463900","stop_name":"Bethesdavej/Abildgade (Aarhus)","stop_lat":"56.176541000000","stop_lon":"10.210555000000"},"000751464200":{"stop_id":"000751464200","stop_name":"Paludan-Müllers Vej/Ekkodalen (Aarhus)","stop_lat":"56.172751000000","stop_lon":"10.183424000000"},"000751464400":{"stop_id":"000751464400","stop_name":"Paludan-Müllers Vej/Finlandsgade v. Storcenter Nor","stop_lat":"56.168816000000","stop_lon":"10.188972000000"},"000751464500":{"stop_id":"000751464500","stop_name":"Langkær Gymnasium. Kileparken (Aarhus)","stop_lat":"56.186246000000","stop_lon":"10.111976000000"},"000751464900":{"stop_id":"000751464900","stop_name":"Niels Juels Gade/Aldersrovej (Aarhus)","stop_lat":"56.170941000000","stop_lon":"10.211683000000"},"000751465100":{"stop_id":"000751465100","stop_name":"Søndre Ringgade/Læssøesgade (Aarhus)","stop_lat":"56.145899000000","stop_lon":"10.186574000000"},"000751465200":{"stop_id":"000751465200","stop_name":"Aarhus Universitetshospital. Tage Hansens Gade","stop_lat":"56.159144000000","stop_lon":"10.182844000000"},"000751465300":{"stop_id":"000751465300","stop_name":"Vestre Ringgade/Hangøvej (Aarhus)","stop_lat":"56.169619000000","stop_lon":"10.195133000000"},"000751465400":{"stop_id":"000751465400","stop_name":"Skovvangsvej/Ndr. Ringgade (Aarhus)","stop_lat":"56.174427000000","stop_lon":"10.214451000000"},"000751465500":{"stop_id":"000751465500","stop_name":"Søndre Ringgade/Hans Schourups Gade (Aarhus)","stop_lat":"56.141951000000","stop_lon":"10.192568000000"},"000751403400":{"stop_id":"000751403400","stop_name":"Vejlby Ringvej/Vorregårds Allé (Aarhus)","stop_lat":"56.184024000000","stop_lon":"10.203347000000"},"000751403500":{"stop_id":"000751403500","stop_name":"Nydamsvej (Aarhus)","stop_lat":"56.187153000000","stop_lon":"10.195710000000"},"000751403600":{"stop_id":"000751403600","stop_name":"Søndervangs Allé/Søndervangen (Aarhus)","stop_lat":"56.115414000000","stop_lon":"10.154145000000"},"000751403800":{"stop_id":"000751403800","stop_name":"Gunner Clausens Vej/Rudolfgårdsvej (Aarhus)","stop_lat":"56.110136000000","stop_lon":"10.140929000000"},"000751403900":{"stop_id":"000751403900","stop_name":"Sandkåsvej/Herredsvej (Aarhus)","stop_lat":"56.180646000000","stop_lon":"10.169602000000"},"000751404000":{"stop_id":"000751404000","stop_name":"Den Gamle By. Viborgvej/Eugen Warmings Vej (Aarhus","stop_lat":"56.158762000000","stop_lon":"10.189853000000"},"000751404100":{"stop_id":"000751404100","stop_name":"Vester Allé/Thorvaldsensgade v. Mølleparken (Aarhu","stop_lat":"56.156021000000","stop_lon":"10.199251000000"},"000751404200":{"stop_id":"000751404200","stop_name":"Randersvej/Nydamsvej (Aarhus)","stop_lat":"56.186671000000","stop_lon":"10.194487000000"},"000751404300":{"stop_id":"000751404300","stop_name":"Vestre Ringgade/Poul Martin Møllers Vej v.Møllevan","stop_lat":"56.165734000000","stop_lon":"10.188023000000"},"000751404400":{"stop_id":"000751404400","stop_name":"Vestre Ringgade/P. Müllers Vej v. Vanggaard Centre","stop_lat":"56.167640000000","stop_lon":"10.190788000000"},"000751404500":{"stop_id":"000751404500","stop_name":"Vesterbro Torv (Aarhus)","stop_lat":"56.158013000000","stop_lon":"10.198572000000"},"000751404600":{"stop_id":"000751404600","stop_name":"Stadion Allé/Ingerslev Boulevard (Aarhus)","stop_lat":"56.144131000000","stop_lon":"10.193907000000"},"000751404700":{"stop_id":"000751404700","stop_name":"Jyllands Allé/Dyrehavevej (Aarhus)","stop_lat":"56.136308000000","stop_lon":"10.189835000000"},"000751404800":{"stop_id":"000751404800","stop_name":"Rosenvangs Allé/Vilhelm Becks Vej v. skolen (Aarhu","stop_lat":"56.131385000000","stop_lon":"10.181252000000"},"000751404900":{"stop_id":"000751404900","stop_name":"Paludan-Müllers Vej/Emil Aarestrups Vej (Aarhus)","stop_lat":"56.166613000000","stop_lon":"10.192849000000"},"000751405000":{"stop_id":"000751405000","stop_name":"Silkeborgvej/Chr. Winthers Vej (Aarhus)","stop_lat":"56.154389000000","stop_lon":"10.154524000000"},"000751405200":{"stop_id":"000751405200","stop_name":"Bøgeskov Høvej/Ormslevvej (Aarhus)","stop_lat":"56.125969000000","stop_lon":"10.136041000000"},"000751405300":{"stop_id":"000751405300","stop_name":"Skanderborgvej/Ravnsbjerg (Aarhus)","stop_lat":"56.120589000000","stop_lon":"10.146402000000"},"000751405400":{"stop_id":"000751405400","stop_name":"Grøndalsvej v. Jyllands Posten (Aarhus)","stop_lat":"56.122908000000","stop_lon":"10.146326000000"},"000751405600":{"stop_id":"000751405600","stop_name":"Klokkeskovvej. Råhøjvej (Aarhus)","stop_lat":"56.132933000000","stop_lon":"10.116246000000"},"000751405700":{"stop_id":"000751405700","stop_name":"Årslev. Silkeborgvej/Hestagervej (Aarhus)","stop_lat":"56.151915000000","stop_lon":"10.071045000000"},"000751405900":{"stop_id":"000751405900","stop_name":"Grenåvej/Ådalsvej (Aarhus)","stop_lat":"56.203708000000","stop_lon":"10.255177000000"},"000751406000":{"stop_id":"000751406000","stop_name":"Vestre Strandalle/Nordre Strandvej v.Bellevuehalle","stop_lat":"56.194278000000","stop_lon":"10.245812000000"},"000751406100":{"stop_id":"000751406100","stop_name":"Aarhus Universitetshospital. Risskov. Harald Selme","stop_lat":"56.184575000000","stop_lon":"10.229594000000"},"000751406200":{"stop_id":"000751406200","stop_name":"Grenåvej/Asylvej (Aarhus)","stop_lat":"56.185712000000","stop_lon":"10.218175000000"},"000751406300":{"stop_id":"000751406300","stop_name":"Ny Moesgårdvej/Sandmosevej (Aarhus)","stop_lat":"56.102686000000","stop_lon":"10.216387000000"},"000751406400":{"stop_id":"000751406400","stop_name":"Grenåvej/Vestre Strandalle v. Veri Centret (Aarhus","stop_lat":"56.188971000000","stop_lon":"10.218423000000"},"000751406500":{"stop_id":"000751406500","stop_name":"Nordre Ringgade/Aldersrovej v. Trøjborg Centret (A","stop_lat":"56.172926000000","stop_lon":"10.210876000000"},"000751406800":{"stop_id":"000751406800","stop_name":"Aarhus Universitet. Statsbiblioteket og Stakladen","stop_lat":"56.170990000000","stop_lon":"10.200249000000"},"000751406900":{"stop_id":"000751406900","stop_name":"Nørre Allé/Lollandsgade (Aarhus)","stop_lat":"56.159651000000","stop_lon":"10.202874000000"},"000751407000":{"stop_id":"000751407000","stop_name":"Gunnar Clausens Vej/Industrivej (Aarhus)","stop_lat":"56.110473000000","stop_lon":"10.133606000000"},"000751407100":{"stop_id":"000751407100","stop_name":"Gunnar Clausens Vej/Fabrikvej (Aarhus)","stop_lat":"56.110582000000","stop_lon":"10.136408000000"},"000751407400":{"stop_id":"000751407400","stop_name":"Skanderborgvej/Monradsvej v. Viby Stadion (Aarhus)","stop_lat":"56.124861000000","stop_lon":"10.155699000000"},"000751407600":{"stop_id":"000751407600","stop_name":"Øster Parkvej v. Aarhus Tech","stop_lat":"56.105963000000","stop_lon":"10.151000000000"},"000751407700":{"stop_id":"000751407700","stop_name":"Viborgvej/Tilst Skolevej (Aarhus)","stop_lat":"56.184257000000","stop_lon":"10.103251000000"},"000751407800":{"stop_id":"000751407800","stop_name":"Lægårdsvej nr. 9. Lystrup (Aarhus)","stop_lat":"56.225966000000","stop_lon":"10.241710000000"},"000751408000":{"stop_id":"000751408000","stop_name":"Nordre Strandvej/Ryvangs Allé (Aarhus)","stop_lat":"56.202382000000","stop_lon":"10.267143000000"},"000751408100":{"stop_id":"000751408100","stop_name":"Vesterbrogade. Vesterbro Torv (Aarhus)","stop_lat":"56.157862000000","stop_lon":"10.196507000000"},"000751408200":{"stop_id":"000751408200","stop_name":"Hejredalsvej/Edwin Rahrs Vej (Aarhus)","stop_lat":"56.161698000000","stop_lon":"10.131765000000"},"000751408300":{"stop_id":"000751408300","stop_name":"Ingerslevs Boulevard v. Skt. Lukas Kirkeplads (Aar","stop_lat":"56.144532000000","stop_lon":"10.195143000000"},"000751408400":{"stop_id":"000751408400","stop_name":"Den Gamle By. Cereskrydset (Aarhus)","stop_lat":"56.157456000000","stop_lon":"10.193902000000"},